AssetID,GSP Grouping / Default Order,Map / License Area,Substation,Upstream GSP,Upstream BSP,Substation Type,Voltage (kV),Location Latitude,Location Longitude,Grid Reference,Substation Comment,LTDS CIM Nodes,Transformer Nameplate Ratings,Single Transformer Site,Maximum Observed Gross Demand (MVA),Minimum Observed Gross Demand (MVA),Contracted Demand Excl BESS (MVA),Contracted BESS Demand (MVA),Estimated Demand Headroom (MVA),Substation Demand RAG Status,Demand Constraint,TIA Threshold,Connected Generation (MW),Contracted Generation (MW),Technical Limits Agreed at GSP,Estimated Generation Headroom (MW),3-Phase Break Fault Rating (kA),3-Phase Break Fault Level (kA),Substation Generation RAG Status,Generation Constraint,Upstream Reinforcement Works,Upstream Reinforcement Completion Date,Substation Reinforcement Works,Substation Reinforcement Completion Date
E - AMEM - 01,E - AMEM - 01,England / SEPD,Amersham GSP,N/A,N/A,GSP,400 / 132,51.665161,-0.65571955,SU 93070 97120,"Any available capacity at Amersham GSP is shared with another DNO - UKPN
Maximum and minimum demand figures listed account only for SSEN's network","10410, 10411",2 X 240MVA (Shared with UKPN),No,52.49,14.20,15.51,0.00,N/A,Red,Substation Thermal Capacity,5MW,41.33,1.00,No,N/A,40.00,9.06,Red,Substation Thermal Capacity,"Transmission works:
Add a 3rd 240MVA transformer",Sep-26,,
E - AMEM - 02,E - AMEM - 02,England / SEPD,Loudwater BSP,Amersham GSP,N/A,BSP,132 / 33,51.612766,-0.69230578,SU 90644 91247,,"18530, 18529",2 x 45 / 90MVA,No,49.87,13.87,15.51,0.00,0.00,Red,Upstream Thermal Capacity,5MW,40.00,1.00,No,0.00,17.50,12.06,Red,Upstream Thermal Capacity,,,,
E - AMEM - 03,E - AMEM - 03,England / SEPD,Bowerdean Primary,Amersham GSP,Loudwater BSP,Primary,33 / 11,51.636897,-0.73389355,SU 87718 93880,,85857,2 x 20MVA,No,19.20,3.38,5.39,0.00,0.00,Red,Substation Thermal Capacity & Upstream Thermal Capacity,5MW,0.00,0.00,No,0.00,13.10,11.08,Red,Upstream Thermal Capacity,,,,
E - AMEM - 04,E - AMEM - 04,England / SEPD,Flackwell Heath Primary,Amersham GSP,Loudwater BSP,Primary,33 / 11,51.595422,-0.69247181,SU 90667 89318,,85874,2 x 15 / 30MVA,No,10.96,1.58,3.03,0.00,0.00,Red,Upstream Thermal Capacity,5MW,1.33,0.00,No,0.00,25.00,8.63,Red,Upstream Thermal Capacity,,,,
E - AMEM - 05,E - AMEM - 05,England / SEPD,Well End Primary,Amersham GSP,Loudwater BSP,Primary,33 / 11,51.583531,-0.7239315,SU 88511 87957,,85868,2 x 15 / 30MVA,No,14.90,3.62,2.65,0.00,0.00,Red,Upstream Thermal Capacity,5MW,0.00,1.00,No,0.00,13.10,9.04,Red,Upstream Thermal Capacity,,,,
E - AMEM - 06,E - AMEM - 06,England / SEPD,Wycombe Marsh Primary,Amersham GSP,Loudwater BSP,Primary,33 / 11,51.618469,-0.72192637,SU 88582 91845,,85864,2 x 12 / 24MVA,No,8.53,1.69,4.44,0.00,0.00,Red,Upstream Thermal Capacity,5MW,0.00,0.00,No,0.00,25.00,8.62,Red,Upstream Thermal Capacity,,,,
E - AXMI - 01,E - AXMI - 01,England / SEPD,Axminster GSP,N/A,N/A,GSP,400 / 132,50.786835,-2.9216119,SY 35130 98990,"Any available capacity at Axminster GSP is shared with another DNO - NGED
Maximum and minimum demand figures listed account only for SSEN's network","15433, 15434, 15435",2 x 240MVA (Shared with NGED),No,97.47,20.20,64.51,143.61,N/A,Green,,5MW,127.38,310.78,Yes,N/A,31.50,9.95,Red,Substation Thermal Capacity,,,,
E - AXMI - 02,E - AXMI - 02,England / SEPD,Yeovil BSP,Axminster GSP,N/A,BSP,132 / 33,50.94991,-2.605157,ST 57586 16894,,"13116, 13117, 13118, 13119, 15134, 26430",2 x 30 / 60MVA + 1 x 45 / 90MVA,No,97.47,20.20,64.51,12.00,16.94,Green,,5MW,92.38,85.98,Yes,0.00,25.00,16.39,Red,Substation Thermal Capacity & Upstream Thermal Capacity,"Reinforce oil filled cable sections of the Axminster GSP to Yeovil BSP 132kV circuits (Dec-28)

Install a 3rd 132kV circuit between Axminster GSP and Yeovil BSP",May-31,Replace both transformers with 90MVA units,May-31
E - AXMI - 03,E - AXMI - 03,England / SEPD,Castle Cary Primary,Axminster GSP,Yeovil BSP,Primary,33 / 11,51.07757,-2.5076407,ST 64534 31039,,89938,2 x 7.5 / 15MVA,No,5.87,1.24,2.49,0.00,6.81,Green,,5MW,1.25,0.00,Yes,0.00,25.00,4.94,Red,Upstream Thermal Capacity,,,,
E - AXMI - 04,E - AXMI - 04,England / SEPD,Chilton Cantello Primary,Axminster GSP,Yeovil BSP,Primary,33 / 11,50.992393,-2.601093,ST 57910 21616,,89931,2 x 7.5 / 15MVA,No,8.78,1.39,4.61,0.00,7.15,Green,,5MW,0.00,0.00,Yes,0.00,20.00,8.30,Red,Upstream Thermal Capacity,,,,
E - AXMI - 05,E - AXMI - 05,England / SEPD,Henstridge Primary,Axminster GSP,Yeovil BSP,Primary,33 / 11,50.972128,-2.3905287,ST 72676 19263,,89519,2 x 12 / 24MVA,No,8.84,1.27,5.79,0.00,13.55,Green,,5MW,5.94,0.00,Yes,0.00,25.00,4.91,Red,Upstream Thermal Capacity,,,,
E - AXMI - 06,E - AXMI - 06,England / SEPD,Larkhill Primary,Axminster GSP,Yeovil BSP,Primary,33 / 11,50.949788,-2.6608023,ST 53677 16914,,89929,2 x 15 / 30MVA,No,9.63,2.23,8.87,0.00,12.27,Green,,5MW,0.00,0.00,Yes,0.00,25.00,10.31,Red,Upstream Thermal Capacity,,,,
E - AXMI - 07,E - AXMI - 07,England / SEPD,Milborne Port Primary,Axminster GSP,Yeovil BSP,Primary,33 / 11,50.97618,-2.4581769,ST 67929 19741,,89927,1 x 5MVA,Yes,3.91,0.56,0.35,0.00,2.14,Green,,5MW,4.00,0.00,Yes,0.00,25.00,2.49,Red,Upstream Thermal Capacity,,,,
E - AXMI - 08,E - AXMI - 08,England / SEPD,Pulham Primary,Axminster GSP,Yeovil BSP,Primary,33 / 11,50.883844,-2.405384,ST 71579 09451,,89924,2 x 8MVA,No,4.03,0.58,0.47,0.00,6.11,Green,,5MW,0.19,0.00,Yes,0.00,13.10,4.50,Red,Upstream Thermal Capacity,,,,
E - AXMI - 09,E - AXMI - 09,England / SEPD,Sherborne Primary,Axminster GSP,Yeovil BSP,Primary,33 / 11,50.961757,-2.5142939,ST 63978 18163,,89926,2 x 7.5 / 15MVA,No,8.01,1.76,1.36,0.00,5.36,Green,,5MW,0.19,0.00,Yes,0.00,25.00,7.30,Red,Upstream Thermal Capacity,,,,
E - AXMI - 10,E - AXMI - 10,England / SEPD,Sparkford Primary,Axminster GSP,Yeovil BSP,Primary,33 / 11,51.027483,-2.560808,ST 60767 25496,,15106,2 x 5MVA,No,3.88,0.82,0.76,0.00,2.18,Green,,5MW,0.00,0.00,Yes,0.00,13.10,6.86,Red,Upstream Thermal Capacity,,,,
E - AXMI - 11,E - AXMI - 11,England / SEPD,West Hendford Primary,Axminster GSP,Yeovil BSP,Primary,33 / 11,50.936657,-2.6417877,ST 55000 15442,,89939,3 x 15 / 30MVA,No,17.76,3.07,12.90,0.00,16.94,Green,,5MW,0.00,0.00,Yes,0.00,13.10,13.88,Red,Upstream Thermal Capacity & Substation Fault Level,,,,
E - AXMI - 12,E - AXMI - 12,England / SEPD,Yeovil Primary,Axminster GSP,Yeovil BSP,Primary,33 / 11,50.949369,-2.6036695,ST 57690 16833,,15102,2 x 15 / 30MVA,No,25.46,3.67,7.19,0.00,5.88,Green,,5MW,15.21,0.00,Yes,0.00,13.10,14.55,Red,Upstream Thermal Capacity & Substation Fault Level,,,Replace the 11kV board with 25kA break / 62.5kA make switchgear,Dec-26
E - AXMI - 13,E - AXMI - 13,England / SEPD,Yetminster Primary,Axminster GSP,Yeovil BSP,Primary,33 / 11,50.889965,-2.5658791,ST 60294 10206,,89925,2 x 7.5 / 12MVA,No,6.67,1.22,0.72,0.00,8.23,Green,,5MW,0.82,0.20,Yes,0.00,25.00,7.78,Red,Upstream Thermal Capacity,,,,
E - BOTW - 01,E - BOTW - 01,England / SEPD,Botley Wood GSP,N/A,N/A,GSP,400 / 132,50.884718,-1.2327295,SU 54070 09750,,"12210, 12211",2 x 240MVA,No,142.14,21.76,37.07,265.83,N/A,Green,,5MW,104.36,439.09,Yes,N/A,40.00,10.07,Red,Substation Thermal Capacity,,,,
E - BOTW - 02,E - BOTW - 02,England / SEPD,Botley Wood BSP,Botley Wood GSP,N/A,BSP,132 / 33,50.884798,-1.2326856,SU 54073 09759,,"12230, 13425",2 x 45 / 90MVA,No,33.09,5.90,20.31,67.53,71.60,Green,,5MW,68.90,77.99,Yes,0.00,25.00,13.42,Red,Substation Thermal Capacity & Upstream Thermal Capacity,,,,
E - BOTW - 03,E - BOTW - 03,England / SEPD,Netley Common BSP,Botley Wood GSP,N/A,BSP,132 / 33,50.905547,-1.3249877,SU 47559 12003,,"13522, 13523, 13524",1 x 60 / 90MVA + 1 x 65 / 90MVA,No,99.07,22.94,16.77,12.50,7.46,Amber,Substation Thermal Capacity,5MW,33.74,38.42,Yes,0.00,25.00,12.56,Red,Upstream Thermal Capacity,,,"Add a 3rd 90MVA transformer (Aug-26)

Replace the 33kV board with 31.5kA break / 78.8kA make switchgear",Dec-28
E - BOTW - 04,E - BOTW - 04,England / SEPD,Park Gate Primary,Botley Wood GSP,Botley Wood BSP,Primary,33 / 11,50.871557,-1.2713317,SU 51369 08259,,87618,2 x 15 / 30MVA,No,11.12,2.41,3.29,0.00,17.04,Green,,5MW,0.00,0.00,Yes,0.00,13.10,8.64,Red,Upstream Thermal Capacity,,,,
E - BOTW - 05,E - BOTW - 05,England / SEPD,Whitely Primary,Botley Wood GSP,Botley Wood BSP,Primary,33 / 11,50.876226,-1.2489868,SU 52936 08794,,87612,2 x 15 / 30MVA,No,18.00,4.49,17.02,0.00,0.37,Red,Substation Thermal Capacity,5MW,0.00,1.00,Yes,0.00,25.00,10.36,Red,Upstream Thermal Capacity,,,Replace both transformers with 20 / 40MVA units,Sep-27
E - BOTW - 06,E - BOTW - 06,England / SEPD,Bishops Waltham Primary,Botley Wood GSP,Netley Common BSP,Primary,33 / 11,50.946805,-1.1943989,SU 56691 16683,,88189,2 x 12 / 24MVA,No,15.63,2.25,2.20,0.00,7.32,Green,,5MW,0.33,0.00,Yes,0.00,20.00,8.13,Red,Upstream Thermal Capacity,Reinforce the 33kV circuits between Netley Common BSP and Bishops Waltham Primary,Dec-28,Replace both transformers with 20 / 40MVA units,Dec-28
E - BOTW - 07,E - BOTW - 07,England / SEPD,Bitterne Primary,Botley Wood GSP,Netley Common BSP,Primary,33 / 11,50.915445,-1.3595965,SU 45116 13082,,88194,2 x 10MVA,No,9.33,1.88,0.50,0.00,3.40,Green,,5MW,0.00,0.00,Yes,0.00,25.00,8.85,Red,Upstream Thermal Capacity,Establish a new 33kV switchboard at Bitterne Primary,Jun-28,,
E - BOTW - 08,E - BOTW - 08,England / SEPD,Hamble Primary,Botley Wood GSP,Netley Common BSP,Primary,33 / 11,50.876708,-1.3280906,SU 47370 08794,,88255,2 x 15 / 30MVA,No,16.62,5.95,0.97,0.00,7.46,Green,,5MW,0.00,0.00,Yes,0.00,20.00,8.85,Red,Upstream Thermal Capacity,,,,
E - BOTW - 09,E - BOTW - 09,England / SEPD,Netley Common Primary,Botley Wood GSP,Netley Common BSP,Primary,33 / 11,50.905741,-1.3241885,SU 47615 12025,,88197,2 x 15 / 30MVA,No,26.03,6.65,7.12,0.00,0.00,Red,Substation Thermal Capacity,5MW,0.13,0.00,Yes,0.00,25.00,10.10,Red,Upstream Thermal Capacity,,,Replace both transformers with 20 / 40MVA units,Apr-27
E - BOTW - 10,E - BOTW - 10,England / SEPD,Townhill Park Primary,Botley Wood GSP,Netley Common BSP,Primary,33 / 11,50.930737,-1.3588175,SU 45156 14783,,88179,2 x 15 / 30MVA,No,16.89,2.71,1.01,0.00,7.46,Green,,5MW,0.83,0.50,Yes,0.00,13.10,9.43,Red,Upstream Thermal Capacity,Install an additional 33kV circuit between Netley Common BSP and a newly established 33kV switchboard at Townhill Park Primary,Jun-29,,
E - BOTW - 11,E - BOTW - 11,England / SEPD,Weston Primary,Botley Wood GSP,Netley Common BSP,Primary,33 / 11,50.886934,-1.3586937,SU 45207 09912,,88224,2 x 20MVA,No,10.19,2.00,1.40,0.00,7.46,Green,,5MW,0.00,0.08,Yes,0.00,13.10,10.76,Red,Upstream Thermal Capacity,Reinforce the 33kV circuits between Netley Common BSP and Weston Primary,Jun-28,,
E - BOTW - 12,E - BOTW - 12,England / SEPD,Woolston Primary,Botley Wood GSP,Netley Common BSP,Primary,33 / 11,50.898975,-1.3736301,SU 44145 11242,,88234,2 x 15 / 30MVA,No,8.04,2.90,3.57,0.00,7.46,Green,,5MW,0.00,0.00,Yes,0.00,20.00,8.14,Red,Upstream Thermal Capacity,Reinforce the 33kV circuit between Weston and Woolston Primaries,Jun-28,,
E - BRLE (AT) - 01,E - BRLE (AT) - 01,England / SEPD,Bramley (Ames-That) GSP,N/A,N/A,GSP,400 / 132,51.337428,-1.0764758,SU 64430 60220,,"12412, 12413",2 x 240MVA,No,183.03,61.20,66.79,28.62,N/A,Green,,5MW,56.20,163.70,Yes,N/A,40.00,9.13,Red,Substation Thermal Capacity,,,Establish a new 132kV switchboard at Bramley,Mar-30
E - BRLE (AT) - 02,E - BRLE (AT) - 02,England / SEPD,Amesbury BSP,Bramley (Ames-That) GSP,N/A,BSP,132 / 33,51.183529,-1.7747245,SU 15842 42724,,"10529, 10530",1 x 45 / 90MVA + 1 x 65 / 90MVA,No,48.52,12.83,4.05,0.00,63.67,Green,,5MW,0.76,0.22,Yes,0.00,25.00,7.46,Red,Upstream Thermal Capacity,,,,
E - BRLE (AT) - 03,E - BRLE (AT) - 03,England / SEPD,Thatcham BSP,Bramley (Ames-That) GSP,N/A,BSP,132 / 33,51.394501,-1.2421443,SU 52824 66435,,"24176, 24177",1 x 30 / 60MVA + 2 x 45 / 90MVA,No,132.95,37.63,54.97,0.00,30.28,Green,,5MW,28.40,23.00,Yes,0.00,25.00,21.18,Red,Upstream Thermal Capacity,"Install 2 new 132kV circuits between the Ashford Hill tee-off and Thatcham BSP (Sep-27)

Install 2 new 132kV circuits between the new Bramley 132kV switchboard and Thatcham BSP (Dec-31)",Sep-27,Add a 4th 90MVA transformer and place the existing 60MVA unit on hot-standby,Apr-27
E - BRLE (AT) - 04,E - BRLE (AT) - 04,England / SEPD,Boscombe Down Primary,Bramley (Ames-That) GSP,Amesbury BSP,Primary,33 / 11,51.168384,-1.7555755,SU 17186 41044,,89009,2 x 15 / 30MVA,No,17.12,3.05,1.53,0.00,10.37,Green,,5MW,0.17,0.00,Yes,0.00,25.00,9.50,Red,Upstream Thermal Capacity,,,,
E - BRLE (AT) - 05,E - BRLE (AT) - 05,England / SEPD,Enford Primary,Bramley (Ames-That) GSP,Amesbury BSP,Primary,33 / 11,51.264402,-1.8046286,SU 13728 51712,,88996,2 x 8MVA,No,3.47,0.57,0.27,0.00,6.78,Green,,5MW,0.00,0.00,Yes,0.00,25.00,4.29,Red,Upstream Thermal Capacity,,,,
E - BRLE (AT) - 06,E - BRLE (AT) - 06,England / SEPD,Park House Primary,Bramley (Ames-That) GSP,Amesbury BSP,Primary,33 / 11,51.192777,-1.6702724,SU 23138 43780,,89016,2 x 4MVA,No,1.66,0.24,0.04,0.00,3.52,Green,,5MW,0.00,0.00,Yes,0.00,25.00,4.26,Red,Upstream Thermal Capacity,,,,
E - BRLE (AT) - 07,E - BRLE (AT) - 07,England / SEPD,Pewsey Primary,Bramley (Ames-That) GSP,Amesbury BSP,Primary,33 / 11,51.332175,-1.7902459,SU 14710 59252,,"85781, 85777",2 x 10 / 14MVA,No,7.70,1.13,0.61,0.00,5.21,Green,,5MW,0.59,0.00,Yes,0.00,25.00,5.96,Red,Upstream Thermal Capacity,,,,
E - BRLE (AT) - 08,E - BRLE (AT) - 08,England / SEPD,Ratfyn Primary,Bramley (Ames-That) GSP,Amesbury BSP,Primary,33 / 11,51.181801,-1.7693965,SU 16215 42533,,89020,2 x 12 / 24MVA,No,10.87,2.07,1.61,0.00,10.85,Green,,5MW,0.00,0.00,Yes,0.00,25.00,12.46,Red,Upstream Thermal Capacity,,,,
E - BRLE (AT) - 09,E - BRLE (AT) - 09,England / SEPD,Ratfyn Primary,Bramley (Ames-That) GSP,Thatcham BSP,Primary,33 / 11,51.365765,-1.392107,SU 42417 63142,,89020,2 x 7.5 / 15MVA,No,6.21,1.19,1.61,0.00,9.11,Green,,5MW,0.00,0.00,Yes,0.00,13.10,12.46,Red,Upstream Thermal Capacity & Substation Fault Level,,,,
E - BRLE (AT) - 10,E - BRLE (AT) - 10,England / SEPD,Beenham Primary,Bramley (Ames-That) GSP,Thatcham BSP,Primary,33 / 11,51.417262,-1.1644013,SU 58204 69025,,86469,2 x 10MVA,No,6.67,0.96,0.73,0.00,5.89,Green,,5MW,1.44,0.00,Yes,0.00,13.10,6.48,Red,Upstream Thermal Capacity,Reinforce the 33kV circuit between Thatcham BSP and Beenham Primary,Jan-31,,
E - BRLE (AT) - 11,E - BRLE (AT) - 11,England / SEPD,Hungerford Primary,Bramley (Ames-That) GSP,Thatcham BSP,Primary,33 / 11,51.41861,-1.5114998,SU 34066 68957,,86776,2 x 10MVA,No,8.11,1.78,1.80,0.00,3.85,Green,,5MW,0.00,0.00,Yes,0.00,13.10,7.30,Red,Upstream Thermal Capacity,,,Replace both transformers with 7.5 / 15MVA units,Aug-26
E - BRLE (AT) - 12,E - BRLE (AT) - 12,England / SEPD,Kingsclere Primary,Bramley (Ames-That) GSP,Thatcham BSP,Primary,33 / 11,51.33095,-1.2552777,SU 51982 59358,,86780,2 x 7.5MVA,No,5.21,0.75,0.78,0.00,4.07,Green,,5MW,0.00,0.00,Yes,0.00,25.00,8.59,Red,Upstream Thermal Capacity,,,,
E - BRLE (AT) - 13,E - BRLE (AT) - 13,England / SEPD,Kintbury Primary,Bramley (Ames-That) GSP,Thatcham BSP,Primary,33 / 11,51.402073,-1.4600535,SU 37657 67143,,86882,2 x 7.5MVA,No,5.58,0.81,0.22,0.00,4.04,Green,,5MW,0.00,0.00,Yes,0.00,13.10,7.46,Red,Upstream Thermal Capacity,,,,
E - BRLE (AT) - 14,E - BRLE (AT) - 14,England / SEPD,Lambourn Primary,Bramley (Ames-That) GSP,Thatcham BSP,Primary,33 / 11,51.501915,-1.521934,SU 33280 78217,,86874,2 x 7.5MVA,No,7.06,1.39,1.38,0.00,1.89,Green,,5MW,0.00,0.00,Yes,0.00,25.00,6.97,Red,Upstream Thermal Capacity,,,Replace both transformers with 12 / 24MVA units,Feb-27
E - BRLE (AT) - 15,E - BRLE (AT) - 15,England / SEPD,Leckhampstead Primary,Bramley (Ames-That) GSP,Thatcham BSP,Primary,33 / 11,51.495955,-1.3681218,SU 43962 77635,,86888,2 x 6.3MVA,No,4.39,1.96,0.40,0.00,3.57,Green,,5MW,0.00,0.00,Yes,0.00,13.10,5.70,Red,Upstream Thermal Capacity,,,,
E - BRLE (AT) - 16,E - BRLE (AT) - 16,England / SEPD,Love Lane Primary,Bramley (Ames-That) GSP,Thatcham BSP,Primary,33 / 11,51.413506,-1.320772,SU 47334 68495,,86769,2 x 20 / 40MVA,No,18.63,6.21,12.57,0.00,10.28,Green,,5MW,0.00,0.00,Yes,0.00,25.00,12.31,Red,Upstream Thermal Capacity,,,,
E - BRLE (AT) - 17,E - BRLE (AT) - 17,England / SEPD,Riverside Primary,Bramley (Ames-That) GSP,Thatcham BSP,Primary,33 / 11,51.401703,-1.3135866,SU 47846 67187,,86850,2 x 15 / 19.5MVA,No,12.46,1.79,4.44,0.00,10.59,Green,,5MW,0.07,0.02,Yes,0.00,20.00,15.48,Red,Upstream Thermal Capacity,,,,
E - BRLE (AT) - 18,E - BRLE (AT) - 18,England / SEPD,St Johns Primary,Bramley (Ames-That) GSP,Thatcham BSP,Primary,33 / 11,51.394356,-1.324232,SU 47113 66363,,86893,1 x 20 / 28MVA + 1 x 20MVA,No,17.71,4.29,8.28,0.00,4.60,Green,,5MW,0.00,1.00,Yes,0.00,13.10,7.74,Red,Upstream Thermal Capacity,,,,
E - BRLE (AT) - 19,E - BRLE (AT) - 19,England / SEPD,Tadley Primary,Bramley (Ames-That) GSP,Thatcham BSP,Primary,33 / 11,51.360594,-1.1719102,SU 57753 62717,,86854,2 x 12 / 24MVA,No,7.14,1.51,2.20,0.00,17.23,Green,,5MW,0.00,0.00,Yes,0.00,25.00,11.50,Red,Upstream Thermal Capacity,,,,
E - BRLE (AT) - 20,E - BRLE (AT) - 20,England / SEPD,Thatcham Primary,Bramley (Ames-That) GSP,Thatcham BSP,Primary,33 / 11,51.394786,-1.2430882,SU 52758 66466,,86864,2 x 15 / 30MVA,No,21.50,6.18,6.19,0.00,2.15,Amber,Substation Thermal Capacity,5MW,0.12,0.10,Yes,0.00,25.00,13.45,Red,Upstream Thermal Capacity,,,,
E - BRLE (AT) - 21,E - BRLE (AT) - 21,England / SEPD,Yattendon Primary,Bramley (Ames-That) GSP,Thatcham BSP,Primary,33 / 11,51.465194,-1.2283782,SU 53699 74307,,86859,2 x 7.5 / 15MVA,No,9.11,1.78,1.47,0.00,6.28,Green,,5MW,0.00,0.00,Yes,0.00,12.00,6.63,Red,Upstream Thermal Capacity,,,,
E - BRLE (B) - 01,E - BRLE (B) - 01,England / SEPD,Bramley (Basi) GSP,N/A,N/A,GSP,400 / 132,51.337428,-1.0764758,SU 64430 60220,,"12414, 12415",2 x 240MVA,No,129.21,9.95,66.61,21.05,N/A,Green,,5MW,165.16,98.61,Yes,N/A,40.00,16.85,Red,Substation Thermal Capacity,,,"Establish a new 132kV switchboard at Bramley, split the existing Bramley-Fleet 132kV network with the new Bramley 132kV board serving Basingstoke, Burghfield and Reading BSP's",Jul-30
E - BRLE (B) - 02,E - BRLE (B) - 02,England / SEPD,Basingstoke (T1A & T2A) BSP,Bramley (Basi) GSP,N/A,BSP,132 / 32,51.269829,-1.0677684,SU 65132 52710,,"15894, 15895",1 x 60MVA + 1 x 90MVA,No,38.28,13.78,19.41,0.00,26.86,Green,,5MW,12.30,28.00,Yes,0.00,17.50,16.72,Red,Upstream Thermal Capacity & Substation Fault Level,,,"Replace the 60MVA transformer with a 90MVA unit (Mar-26)

Replace the 33kV board with 31.5kA break / 78.8kA make switchgear",Mar-30
E - BRLE (B) - 03,E - BRLE (B) - 03,England / SEPD,Basingstoke (T1B & T2B) BSP,Bramley (Basi) GSP,N/A,BSP,132 / 33,51.269838,-1.0677682,SU 65132 52711,,15882,2 x 90MVA,No,63.45,20.47,11.53,0.00,45.89,Green,,5MW,52.86,0.90,Yes,0.00,17.50,14.72,Red,Upstream Thermal Capacity,,,Replace the 33kV board with 31.5kA break / 78.8kA make switchgear,Mar-30
E - BRLE (B) - 04,E - BRLE (B) - 04,England / SEPD,Basingstoke (T3 & T4) BSP,Bramley (Basi) GSP,N/A,BSP,132 / 33,51.269847,-1.067768,SU 65132 52712,,"11233, 15760, 15761",2 x 90MVA,No,40.40,12.31,35.67,21.05,54.68,Green,,5MW,0.00,69.71,Yes,0.00,25.00,12.70,Red,Upstream Thermal Capacity,,,,
E - BRLE (B) - 05,E - BRLE (B) - 05,England / SEPD,Basingstoke Primary,Bramley (Basi) GSP,Basingstoke (T1A & T2A) BSP,Primary,33 / 11,51.269782,-1.0674396,SU 65155 52705,,87120,2 x 15 / 30MVA,No,9.95,1.43,2.04,0.00,16.24,Green,,5MW,0.07,0.00,Yes,0.00,13.10,12.27,Red,Upstream Thermal Capacity & Substation Fault Level & Upstream Fault Level Constraint,,,,
E - BRLE (B) - 06,E - BRLE (B) - 06,England / SEPD,Jays Close Primary,Bramley (Basi) GSP,Basingstoke (T1A & T2A) BSP,Primary,33 / 11,51.246642,-1.0979948,SU 63055 50105,,87140,2 x 12 / 24MVA,No,18.37,7.03,17.37,0.00,11.11,Green,,5MW,5.58,0.00,Yes,0.00,20.00,14.77,Red,Upstream Thermal Capacity & Upstream Fault Level Constraint,,,,
E - BRLE (B) - 07,E - BRLE (B) - 07,England / SEPD,Arborfield Primary,Bramley (Basi) GSP,Basingstoke (T1B & T2B) BSP,Primary,33 / 11,51.385867,-0.90996432,SU 75949 65766,,87118,2 x 12 / 24MVA,No,10.67,2.34,9.79,0.00,8.37,Green,,5MW,1.01,0.20,Yes,0.00,13.10,8.40,Red,Upstream Thermal Capacity,,,,
E - BRLE (B) - 08,E - BRLE (B) - 08,England / SEPD,Bramley Green Primary,Bramley (Basi) GSP,Basingstoke (T1B & T2B) BSP,Primary,33 / 11,51.321716,-1.033725,SU 67431 58511,,87121,2 x 15MVA,No,4.63,0.91,0.83,0.00,11.18,Green,,5MW,0.00,0.00,Yes,0.00,25.00,6.44,Red,Upstream Thermal Capacity,,,,
E - BRLE (B) - 09,E - BRLE (B) - 09,England / SEPD,Chineham Primary,Bramley (Basi) GSP,Basingstoke (T1B & T2B) BSP,Primary,33 / 11,51.297658,-1.0675922,SU 65105 55805,,87136,2 x 15 / 30MVA,No,12.03,2.99,6.98,0.00,15.99,Green,,5MW,12.70,0.70,Yes,0.00,25.00,9.95,Red,Upstream Thermal Capacity,,,,
E - BRLE (B) - 10,E - BRLE (B) - 10,England / SEPD,Down Grange Primary,Bramley (Basi) GSP,Basingstoke (T1B & T2B) BSP,Primary,33 / 11,51.247996,-1.1187578,SU 61604 50238,,87123,2 x 30MVA,No,18.66,3.27,0.99,0.00,11.27,Green,,5MW,0.00,0.00,Yes,0.00,13.10,12.20,Red,Upstream Thermal Capacity & Substation Fault Level,,,,
E - BRLE (B) - 11,E - BRLE (B) - 11,England / SEPD,Overton Primary,Bramley (Basi) GSP,Basingstoke (T1B & T2B) BSP,Primary,33 / 11,51.255014,-1.2553727,SU 52061 50913,,15508,2 x 15 / 30MVA,No,5.30,0.76,1.96,0.00,32.03,Green,,5MW,8.90,0.00,Yes,0.00,13.10,6.02,Red,Upstream Thermal Capacity,Reinforce the 33kV ,,,
E - BRLE (B) - 12,E - BRLE (B) - 12,England / SEPD,Brook Street Primary,Bramley (Basi) GSP,Basingstoke (T3 & T4) BSP,Primary,33 / 11,51.265682,-1.0915307,SU 63480 52228,,87122,2 x 15 / 30MVA,No,11.37,3.27,2.84,0.00,15.14,Green,,5MW,0.00,0.00,Yes,0.00,13.10,12.19,Red,Upstream Thermal Capacity & Substation Fault Level,,,,
E - BRLE (B) - 13,E - BRLE (B) - 13,England / SEPD,Houndmills Primary,Bramley (Basi) GSP,Basingstoke (T3 & T4) BSP,Primary,33 / 11,51.27174,-1.1099464,SU 62187 52886,,"87125, 87126",2 x 20 / 40MVA,No,16.42,6.05,27.77,0.00,0.00,Red,Substation Thermal Capacity,5MW,0.00,0.00,Yes,0.00,25.00,10.13,Red,Upstream Thermal Capacity,,,,
E - BRLE (B) - 14,E - BRLE (B) - 14,England / SEPD,Oarkridge Primary,Bramley (Basi) GSP,Basingstoke (T3 & T4) BSP,Primary,33 / 11,51.278591,-1.0910467,SU 63496 53664,,87127,2 x 15 / 30MVA,No,9.54,2.23,5.06,0.00,15.47,Green,,5MW,0.00,0.00,Yes,0.00,13.10,8.76,Red,Upstream Thermal Capacity,,,,
E - CHIC - 01,E - CHIC - 01,England / SEPD,Chickerell GSP,N/A,N/A,GSP,400 / 132,50.622997,-2.4887893,SY 65520 80480,,"16062, 16063, 16064, 16065",2 x 240MVA,No,87.67,11.68,20.32,110.69,N/A,Green,,5MW,69.11,125.13,Yes,N/A,25.00,8.63,Red,Substation Thermal Capacity,,,,
E - CHIC - 02,E - CHIC - 02,England / SEPD,Chickerell BSP,Chickerell GSP,N/A,BSP,132 / 33,50.623273,-2.4893718,SY 65479 80511,,"13855, 14163, 26630",2 x 45 / 90MVA,No,84.78,12.21,20.32,110.69,21.20,Green,,5MW,69.11,125.13,Yes,0.00,17.50,13.67,Red,Substation Thermal Capacity & Upstream Thermal Capacity,,,"Add a 3rd 90MVA transformer (May-27)

Replace the 33kV board with 31.5kA break / 78.8kA make switchgear",Feb-28
E - CHIC - 03,E - CHIC - 03,England / SEPD,Cerne Abbas Primary,Chickerell GSP,Chickerell BSP,Primary,33 / 11,50.807908,-2.4819181,ST 66140 01039,,90027,1 x 2MVA,Yes,1.37,0.20,0.02,0.00,2.00,Green,,5MW,0.00,0.00,Yes,0.00,13.10,1.77,Red,Upstream Thermal Capacity,,,"Relocate Cerne Abbas Primary to allow replacement of the entire substation, replace the existing transformer with a 4MVA unit and replace the 11kV board with 25kA break / 62.5kA make switchgear",Feb-28
E - CHIC - 04,E - CHIC - 04,England / SEPD,Charminster Primary,Chickerell GSP,Chickerell BSP,Primary,33 / 11,50.737358,-2.4646274,SY 67309 93186,,90031,2 x 7.5 / 15MVA,No,8.18,1.63,1.90,0.00,4.86,Green,,5MW,0.52,0.00,Yes,0.00,25.00,6.46,Red,Upstream Thermal Capacity,,,,
E - CHIC - 05,E - CHIC - 05,England / SEPD,Chickerell Primary,Chickerell GSP,Chickerell BSP,Primary,33 / 11,50.623273,-2.4893718,SY 65479 80511,,90036,2 x 10 / 14.8MVA,No,8.23,1.41,1.55,0.00,21.20,Green,,5MW,4.96,0.00,Yes,0.00,25.00,9.78,Red,Upstream Thermal Capacity,,,,
E - CHIC - 06,E - CHIC - 06,England / SEPD,Dorchester Primary,Chickerell GSP,Chickerell BSP,Primary,33 / 11,50.712414,-2.4388297,SY 69113 90401,,15984,2 x 15 / 30MVA,No,16.93,3.55,3.21,0.00,19.32,Green,,5MW,1.56,0.00,Yes,0.00,25.00,8.58,Red,Upstream Thermal Capacity,,,,
E - CHIC - 07,E - CHIC - 07,England / SEPD,Maiden Newton Primary,Chickerell GSP,Chickerell BSP,Primary,33 / 11,50.777853,-2.5809203,SY 59138 97747,,15971,2 x 10MVA,No,6.74,0.97,0.85,0.00,5.82,Green,,5MW,0.15,0.00,Yes,0.00,25.00,6.84,Red,Upstream Thermal Capacity,,,,
E - CHIC - 08,E - CHIC - 08,England / SEPD,Piddletrenthide Primary,Chickerell GSP,Chickerell BSP,Primary,33 / 11,50.797069,-2.4246389,SY 70169 99809,,90028,2 x 5 / 6.5MVA,No,4.91,0.71,0.59,0.00,3.20,Green,,5MW,0.71,0.00,Yes,0.00,13.10,6.18,Red,Upstream Thermal Capacity,,,,
E - CHIC - 09,E - CHIC - 09,England / SEPD,Portland Primary,Chickerell GSP,Chickerell BSP,Primary,33 / 11,50.564353,-2.4488323,SY 68307 73941,,90032,2 x 12 / 24MVA,No,9.51,2.06,3.88,0.00,6.48,Green,,5MW,0.00,0.00,Yes,0.00,13.10,9.12,Red,Upstream Thermal Capacity,,,,
E - CHIC - 10,E - CHIC - 10,England / SEPD,Puddletown Primary,Chickerell GSP,Chickerell BSP,Primary,33 / 11,50.754371,-2.3667397,SY 74226 95039,,90029,2 x 6.3MVA,No,2.38,0.34,0.02,0.00,5.80,Green,,5MW,0.13,0.00,Yes,0.00,25.00,4.66,Red,Upstream Thermal Capacity,,,,
E - CHIC - 11,E - CHIC - 11,England / SEPD,Redlands Primary,Chickerell GSP,Chickerell BSP,Primary,33 / 11,50.639646,-2.46618,SY 67131 82321,,90034,2 x 15MVA,No,8.66,1.25,3.36,0.00,3.84,Green,,5MW,0.39,0.03,Yes,0.00,25.00,12.03,Red,Upstream Thermal Capacity,,,,
E - CHIC - 12,E - CHIC - 12,England / SEPD,Weymouth Primary,Chickerell GSP,Chickerell BSP,Primary,33 / 11,50.610662,-2.4614839,SY 67443 79096,,15977,3 x 7.5 / 15MVA,No,22.13,4.44,4.75,0.00,13.33,Green,,5MW,0.45,0.00,Yes,0.00,20.00,13.80,Red,Upstream Thermal Capacity,,,,
E - COWL - 01,E - COWL - 01,England / SEPD,Cowley GSP,N/A,N/A,GSP,400 / 132,51.710166,-1.1906262,SP 56020 01580,,"14014, 14015, 14016, 14017",5 x 240MVA,No,665.76,237.56,577.78,162.59,N/A,Green,,5MW,388.95,818.25,Yes,N/A,31.50,13.07,Red,Substation Thermal Capacity,,,,
E - COWL - 02,E - COWL - 02,England / SEPD,Cowley Local (Main) BSP,Cowley GSP,N/A,BSP,132 / 33,51.723588,-1.1890402,SP 56113 03074,,"13821, 13822, 13823, 13838, 13839",2 x 45 / 90MVA,No,64.10,11.86,70.43,0.00,11.21,Amber,Substation Thermal Capacity,5MW,2.21,42.00,Yes,0.00,25.00,12.65,Red,Upstream Thermal Capacity,Add a 3rd 132kV circuit between Cowley GSP and Cowley Local BSP,Jan-29,Add a 5th 90MVA transformer on the Cowley Local (Main) side of the BSP,Jan-29
E - COWL - 03,E - COWL - 03,England / SEPD,Cowley Local (Reserve) BSP,Cowley GSP,N/A,BSP,132 / 33,51.723588,-1.1890402,SP 56113 03074,,"13828, 13829, 13830, 13831, 13832",2 x 45 / 90MVA,No,27.04,3.90,32.93,50.00,53.81,Green,,5MW,22.36,64.87,Yes,0.00,25.00,12.06,Red,Substation Thermal Capacity & Upstream Thermal Capacity,,,Establish a new Primary substation Oxford Science Park fed from Cowley Local (Reserve) BSP via 2 x new 33kV circuits that includes 2 x 12 / 24MVA transformers,Oct-27
E - COWL - 04,E - COWL - 04,England / SEPD,Drayton BSP,Cowley GSP,N/A,BSP,132 / 33,51.631236,-1.3269175,SU 46684 92706,,"14829, 14830",3 x 45 / 90MVA,No,102.02,21.52,76.88,0.00,0.00,Red,Substation Thermal Capacity,5MW,103.43,84.06,Yes,0.00,25.00,17.97,Red,Substation Thermal Capacity & Upstream Thermal Capacity,Reinforce the 2 132kV circuits between Drayton BSP and the Drayton - Culham tee off,Dec-27,,
E - COWL - 05,E - COWL - 05,England / SEPD,Headington BSP,Cowley GSP,N/A,BSP,132 / 33,51.769341,-1.2122632,SP 54454 08145,,"17029, 17030, 17031",2 x 45 / 90MVA,No,56.51,8.14,78.64,0.00,6.67,Amber,Substation Thermal Capacity,5MW,44.43,18.95,Yes,0.00,17.50,15.03,Red,Upstream Thermal Capacity,Remove Headington BSP from the existing Headington - Witney - Yarnton 132kV network via 2 new 132kV circuits between Cowley GSP and Headington BSP,Nov-26,,
E - COWL - 06,E - COWL - 06,England / SEPD,High Wycombe BSP,Cowley GSP,N/A,BSP,132 / 33,51.622165,-0.7768458,SU 84773 92191,,"17228, 17229, 17230, 17231",2 x 45 / 90MVA,No,87.04,23.57,26.98,0.00,14.49,Green,,5MW,0.00,0.00,Yes,0.00,13.10,12.97,Red,Upstream Thermal Capacity & Substation Fault Level,,,,
E - COWL - 07,E - COWL - 07,England / SEPD,Oxford (Osney) BSP,Cowley GSP,N/A,BSP,132 / 33,51.750314,-1.2763322,SP 50054 05983,,"16469, 20919, 20920",2 x 45 / 90MVA,No,77.40,16.99,48.26,3.00,0.00,Red,Substation Thermal Capacity,5MW,0.00,62.90,Yes,0.00,25.00,12.28,Red,Upstream Thermal Capacity,Add a 3rd 132kV circuit between Cowley GSP and Oxford (Osney) BSP,Mar-31,Add a 3rd 90MVA transformer,Mar-31
E - COWL - 08,E - COWL - 08,England / SEPD,Witney BSP,Cowley GSP,N/A,BSP,132 / 33,51.7721,-1.4852,SP 35615 08285,,"15060, 25329, 25330",2 x 45 / 90MVA,No,74.82,24.09,34.34,39.53,23.10,Green,,5MW,54.05,91.00,Yes,0.00,25.00,12.22,Red,Substation Thermal Capacity & Upstream Thermal Capacity,"Remove Headington BSP from the existing Headington - Witney - Yarnton 132kV network via 2 new 132kV circuits between Cowley GSP and Headington BSP (Nov -26)

Reinforce the 132kV network between Witney BSP and Yarnton BSP",Jun-28,Install a 3rd 90MVA transformer,Jun-28
E - COWL - 09,E - COWL - 09,England / SEPD,Yarnton BSP,Cowley GSP,N/A,BSP,132 / 33,51.8052,-1.3007,SP 48310 12078,,"16573, 17001, 26328",2 x 45 / 90MVA,No,72.78,23.44,141.95,4.80,0.00,Red,Substation Thermal Capacity,5MW,46.25,117.49,Yes,0.00,25.00,12.36,Red,Substation Thermal Capacity & Upstream Thermal Capacity,"Remove Headington BSP from the existing Headington - Witney - Yarnton 132kV network via 2 new 132kV circuits between Cowley GSP and Headington BSP (Nov -26)

Reinforce the 132kV network between Witney BSP and Yarnton BSP (Jun-28)

Add a 3rd 132kV circuit between Cowley GSP and Yarnton BSP",Dec-29,Install a 3rd 120MVA transformer and replace the 132kV board with 40A break / 100A make switchgear,Mar-28
E - COWL - 10,E - COWL - 10,England / SEPD,Culham Primary,Cowley GSP,N/A,Primary,132 / 11,51.662225,-1.2350998,SU 53003 96215,,"14347, 14345",2 x 7.5 / 15 + 1 x 10/20MVA,No,6.35,0.91,19.20,0.00,15.49,Green,,5MW,0.00,0.00,Yes,0.00,25.00,14.12,Red,Upstream Thermal Capacity,,,Replace both transformers with 20 / 40MVA units,Jun-27
E - COWL - 11,E - COWL - 11,England / SEPD,Harwell Primary,Cowley GSP,N/A,Primary,132 / 11,51.579598,-1.3174195,SU 47395 86969,,16747,2 x 20 / 40MVA,No,6.75,1.90,6.68,5.26,39.07,Green,,5MW,0.00,0.20,Yes,0.00,25.00,23.69,Red,Upstream Thermal Capacity & Substation Fault Level,Reinforce the 2 132kV circuits between Drayton BSP and the Drayton - Culham tee off,Dec-27,,
E - COWL - 12,E - COWL - 12,England / SEPD,Cowley Local Primary,Cowley GSP,Cowley Local (Main) BSP,Primary,33 / 11,51.723588,-1.1890402,SP 56113 03074,,85826,3 x 7.5 / 15MVA,No,21.77,6.86,38.09,0.00,0.00,Red,Substation Thermal Capacity,5MW,0.79,0.00,Yes,0.00,25.00,23.56,Red,Upstream Thermal Capacity & Substation Fault Level,,,Replace both transformers with 20 / 40MVA units,Oct-26
E - COWL - 13,E - COWL - 13,England / SEPD,Rose Hill Primary,Cowley GSP,Cowley Local (Main) BSP,Primary,33 / 11,51.723407,-1.2248894,SP 53637 03027,,85832,2 x 20MVA,No,14.68,3.44,28.21,0.00,0.00,Red,Substation Thermal Capacity,5MW,1.43,0.00,Yes,0.00,13.10,11.11,Red,Upstream Thermal Capacity,Reinforce the 33kV circuits between Cowley Local (Main) BSP and Rose Hill Primary,Jul-31,Replace both transformers with 20 / 40MVA units and replace the 11kV board with 25kA break / 62.5kA make switchgear,Jul-31
E - COWL - 14,E - COWL - 14,England / SEPD,Union Street Primary,Cowley GSP,Cowley Local (Main) BSP,Primary,33 / 11,51.748851,-1.2356369,SP 52865 05849,,"85855, 85852",2 x 10 / 14MVA + 1 x 15MVA,No,17.70,2.70,4.14,0.00,5.93,Green,,5MW,0.00,0.00,Yes,0.00,25.00,10.55,Red,Upstream Thermal Capacity,,,,
E - COWL - 15,E - COWL - 15,England / SEPD,Berinsfield Primary,Cowley GSP,Cowley Local (Reserve) BSP,Primary,33 / 11,51.654969,-1.1574654,SU 58382 95467,,85788,2 x 12 / 24MVA,No,9.84,1.88,5.40,0.00,10.07,Green,,5MW,6.14,0.13,Yes,0.00,20.00,11.04,Red,Upstream Thermal Capacity,"Install a new 33kV circuit between Cowley Local (Reserve) BSP and Berinsfield Primary to feed Wallingford Primary, removing it from the existing Berinsfield - Wallingford 33kV network (Jun-26)

Reinforce the existing 33kV circuits between Cowley Local (Reserve) BSP and Berinsfield Primary",Sep-31,Replace both transformers with 20 / 40MVA units,Sep-31
E - COWL - 16,E - COWL - 16,England / SEPD,Kennington Primary,Cowley GSP,Cowley Local (Reserve) BSP,Primary,33 / 11,51.706101,-1.2361258,SP 52881 01094,,85815,1 x 7.5 / 12.2MVA,Yes,4.51,0.70,0.51,0.00,1.19,Green,,5MW,0.38,1.00,Yes,0.00,13.10,6.07,Red,Upstream Thermal Capacity,,,,
E - COWL - 17,E - COWL - 17,England / SEPD,Wallingford Primary,Cowley GSP,Cowley Local (Reserve) BSP,Primary,33 / 11,51.601044,-1.1373111,SU 59847 89486,,85842,2 x 15 / 21MVA,No,13.21,3.36,4.11,0.00,0.00,Red,Substation Thermal Capacity,5MW,4.44,0.07,Yes,0.00,25.00,8.51,Red,Upstream Thermal Capacity,"Install a new 33kV circuit between Cowley Local (Reserve) BSP and Berinsfield Primary to feed Wallingford Primary, removing it from the existing Berinsfield - Wallingford 33kV network",Jun-26,Replace both transformers with 15 / 30MVA units,Sep-31
E - COWL - 18,E - COWL - 18,England / SEPD,Cholsey Primary,Cowley GSP,Drayton BSP,Primary,33 / 11,51.558051,-1.1615505,SU 58223 84685,,85889,2 x 7.5 / 15MVA,No,5.78,1.12,0.65,0.00,0.00,Red,Upstream Thermal Capacity,5MW,0.44,0.00,Yes,0.00,13.10,7.24,Red,Upstream Thermal Capacity,Reinforce the 33kV circuit between Drayton BSP and Fulscot Primary,Mar-31,,
E - COWL - 19,E - COWL - 19,England / SEPD,Fulscot Primary,Cowley GSP,Drayton BSP,Primary,33 / 11,51.601819,-1.2157563,SU 54413 89511,,85934,2 x 15 / 30MVA,No,12.44,3.08,7.80,0.00,0.00,Red,Upstream Thermal Capacity,5MW,0.00,0.20,Yes,0.00,13.10,15.20,Red,Upstream Thermal Capacity & Substation Fault Level,Reinforce the 33kV circuit between Drayton BSP and Fulscot Primary,Mar-31,,
E - COWL - 20,E - COWL - 20,England / SEPD,Grove Primary,Cowley GSP,Drayton BSP,Primary,33 / 11,51.603958,-1.4308355,SU 39515 89611,,85905,2 x 7.5 / 15MVA,No,13.05,3.74,8.89,0.00,0.00,Red,Substation Thermal Capacity & Upstream Thermal Capacity,5MW,0.00,0.36,Yes,0.00,13.10,8.66,Red,Upstream Thermal Capacity,,,,
E - COWL - 21,E - COWL - 21,England / SEPD,Milton Primary,Cowley GSP,Drayton BSP,Primary,33 / 11,51.625145,-1.2792202,SU 49992 92060,,85945,3 x 15 / 30MVA,No,26.11,8.78,22.09,0.00,0.00,Red,Upstream Thermal Capacity,5MW,0.00,0.00,Yes,0.00,16.00,21.48,Red,Upstream Thermal Capacity & Substation Fault Level,,,,
E - COWL - 22,E - COWL - 22,England / SEPD,Wantage Primary,Cowley GSP,Drayton BSP,Primary,33 / 11,51.59208,-1.405361,SU 41290 88304,,85928,2 x 12 / 24MVA,No,10.67,2.18,3.66,0.00,0.00,Red,Upstream Thermal Capacity,5MW,0.00,0.10,Yes,0.00,25.00,12.51,Red,Upstream Thermal Capacity,,,,
E - COWL - 23,E - COWL - 23,England / SEPD,Winsmore Lane Primary,Cowley GSP,Drayton BSP,Primary,33 / 11,51.669439,-1.2854441,SU 49513 96982,,85922,2 x 20MVA,No,15.00,2.85,2.78,0.00,0.00,Red,Upstream Thermal Capacity,5MW,0.28,0.19,Yes,0.00,13.10,10.79,Red,Upstream Thermal Capacity,,,,
E - COWL - 24,E - COWL - 24,England / SEPD,Arncott Primary,Cowley GSP,Headington BSP,Primary,33 / 11,51.858146,-1.1195824,SP 60730 18095,,85994,2 x 7.5 / 15MVA,No,7.75,1.46,16.94,0.00,0.00,Red,Substation Thermal Capacity,5MW,0.38,0.45,Yes,0.00,13.10,8.74,Red,Upstream Thermal Capacity,,,Replace both transformers with 12 / 24MVA units,May-26
E - COWL - 25,E - COWL - 25,England / SEPD,Headington Primary,Cowley GSP,Headington BSP,Primary,33 / 11,51.768803,-1.2124754,SP 54440 08085,,86026,2 x 20 / 40MVA,No,16.39,3.17,8.08,0.00,6.67,Green,,5MW,0.00,0.00,Yes,0.00,25.00,18.55,Red,Upstream Thermal Capacity,,,,
E - COWL - 26,E - COWL - 26,England / SEPD,Old Road Primary,Cowley GSP,Headington BSP,Primary,33 / 11,51.753807,-1.200654,SP 55274 06426,,86019,2 x 15 / 30MVA,No,18.25,7.95,0.67,0.00,6.67,Green,,5MW,0.00,0.06,Yes,0.00,13.10,17.39,Red,Upstream Thermal Capacity & Substation Fault Level,,,,
E - COWL - 27,E - COWL - 27,England / SEPD,Wheatley Primary,Cowley GSP,Headington BSP,Primary,33 / 11,51.743825,-1.121125,SP 60777 05379,,85998,2 x 7.5 / 15MVA,No,9.24,1.33,19.59,0.00,0.00,Red,Substation Thermal Capacity,5MW,0.00,0.36,Yes,0.00,16.00,7.13,Red,Upstream Thermal Capacity,Reinforce the 33kV circuits feeding Wheatley Primary,Oct-26,Replace both transformers with 15 / 30MVA units,Oct-26
E - COWL - 28,E - COWL - 28,England / SEPD,Chisbridge Primary,Cowley GSP,High Wycombe BSP,Primary,33 / 11,51.595539,-0.84320641,SU 80226 89155,,86089,2 x 7.5MVA,No,6.42,1.66,0.86,0.00,2.85,Green,,5MW,0.00,0.00,Yes,0.00,13.10,6.41,Red,Upstream Thermal Capacity & Upstream Fault Level Constraint,Reinforce the Chisbridge - Nuffield - Stokenchurch - Watlington 33kV ring by adding a 2nd 33kV circuit between High Wycombe BSP and Stokenchurch Primary. Also reinforce the 33kV circuit between High Wycombe BSP and Chisbridge Primary,Feb-31,,
E - COWL - 29,E - COWL - 29,England / SEPD,Fryers Lane Primary,Cowley GSP,High Wycombe BSP,Primary,33 / 11,51.637261,-0.77409884,SU 84935 93873,,86134,2 x 20MVA,No,13.51,3.01,1.33,0.00,11.74,Green,,5MW,0.00,0.00,Yes,0.00,13.10,12.19,Red,Upstream Thermal Capacity & Substation Fault Level & Upstream Fault Level Constraint,,,,
E - COWL - 30,E - COWL - 30,England / SEPD,High Wycombe Primary,Cowley GSP,High Wycombe BSP,Primary,33 / 11,51.622252,-0.77742129,SU 84733 92200,,86120,2 x 15 / 30MVA,No,20.46,3.19,7.47,0.00,2.89,Green,,5MW,0.95,0.70,Yes,0.00,13.10,13.90,Red,Upstream Thermal Capacity & Substation Fault Level & Upstream Fault Level Constraint,,,,
E - COWL - 31,E - COWL - 31,England / SEPD,High Wycombe Town Primary,Cowley GSP,High Wycombe BSP,Primary,33 / 11,51.628953,-0.7545438,SU 86304 92972,,86143,3 x 15 / 30MVA,No,19.60,5.34,4.34,0.00,14.49,Green,,5MW,0.00,0.00,Yes,0.00,13.10,15.59,Red,Upstream Thermal Capacity & Substation Fault Level & Upstream Fault Level Constraint,,,,
E - COWL - 32,E - COWL - 32,England / SEPD,Little Marlow Primary,Cowley GSP,High Wycombe BSP,Primary,33 / 11,51.582448,-0.75966907,SU 86037 87794,,86126,2 x 15 / 30MVA,No,16.39,3.69,4.85,0.00,8.31,Green,,5MW,0.00,0.00,Yes,0.00,20.00,10.52,Red,Upstream Thermal Capacity & Upstream Fault Level Constraint,,,,
E - COWL - 33,E - COWL - 33,England / SEPD,Nuffield Primary,Cowley GSP,High Wycombe BSP,Primary,33 / 11,51.57579,-1.0153895,SU 68329 86784,,86093,1 x 7.5 / 15MVA,Yes,4.40,0.97,1.23,0.00,1.88,Green,,5MW,0.00,0.00,Yes,0.00,25.00,5.07,Red,Upstream Thermal Capacity & Upstream Fault Level Constraint,Reinforce the Chisbridge - Nuffield - Stokenchurch - Watlington 33kV ring by adding a 2nd 33kV circuit between High Wycombe BSP and Stokenchurch Primary. Also reinforce the 33kV circuit between High Wycombe BSP and Chisbridge Primary,Feb-31,,
E - COWL - 34,E - COWL - 34,England / SEPD,Stokenchurch Primary,Cowley GSP,High Wycombe BSP,Primary,33 / 11,51.642717,-0.88683647,SU 77124 94355,,86105,2 x 7.5MVA,No,7.95,1.19,5.15,0.00,0.00,Red,Substation Thermal Capacity,5MW,0.00,0.00,Yes,0.00,20.00,6.69,Red,Upstream Thermal Capacity & Upstream Fault Level Constraint,Reinforce the Chisbridge - Nuffield - Stokenchurch - Watlington 33kV ring by adding a 2nd 33kV circuit between High Wycombe BSP and Stokenchurch Primary. Also reinforce the 33kV circuit between High Wycombe BSP and Chisbridge Primary,Feb-31,,
E - COWL - 35,E - COWL - 35,England / SEPD,Watlington Primary,Cowley GSP,High Wycombe BSP,Primary,33 / 11,51.643147,-1.0027024,SU 69106 94287,,86096,2 x 7.5MVA,No,6.18,1.33,1.61,0.00,2.62,Green,,5MW,0.00,0.00,Yes,0.00,25.00,6.49,Red,Upstream Thermal Capacity & Upstream Fault Level Constraint,Reinforce the Chisbridge - Nuffield - Stokenchurch - Watlington 33kV ring by adding a 2nd 33kV circuit between High Wycombe BSP and Stokenchurch Primary. Also reinforce the 33kV circuit between High Wycombe BSP and Chisbridge Primary,Feb-31,Replace both transformers with 7.5 / 15MVA units,Feb-31
E - COWL - 36,E - COWL - 36,England / SEPD,Frenchay Road Primary,Cowley GSP,Oxford (Osney) BSP,Primary,33 / 11,51.770715,-1.2706149,SP 50426 08256,,86216,2 x 20MVA,No,9.02,1.65,6.11,0.00,0.00,Red,Upstream Thermal Capacity,5MW,0.00,0.00,Yes,0.00,13.10,10.71,Red,Upstream Thermal Capacity,,,,
E - COWL - 37,E - COWL - 37,England / SEPD,North Hinksey Primary,Cowley GSP,Oxford (Osney) BSP,Primary,33 / 11,51.736233,-1.2969614,SP 48645 04403,,86240,2 x 7.5MVA,No,6.49,1.15,2.84,0.00,0.00,Red,Upstream Thermal Capacity,5MW,0.10,0.00,Yes,0.00,25.00,7.21,Red,Upstream Thermal Capacity,,,,
E - COWL - 38,E - COWL - 38,England / SEPD,Oxford Primary,Cowley GSP,Oxford (Osney) BSP,Primary,33 / 11,51.749568,-1.2749825,SP 50148 05901,,86199,2 x 15 / 30MVA,No,18.13,4.71,19.76,0.00,0.00,Red,Substation Thermal Capacity & Upstream Thermal Capacity,5MW,0.17,0.00,Yes,0.00,25.00,15.61,Red,Upstream Thermal Capacity,,,,
E - COWL - 39,E - COWL - 39,England / SEPD,St Ebbes Primary,Cowley GSP,Oxford (Osney) BSP,Primary,33 / 11,51.748029,-1.2589141,SP 51259 05741,,86221,2 x 15 / 30MVA,No,18.55,4.26,4.73,0.00,0.00,Red,Upstream Thermal Capacity,5MW,0.00,0.00,Yes,0.00,25.00,14.25,Red,Upstream Thermal Capacity,,,,
E - COWL - 40,E - COWL - 40,England / SEPD,University Parks Primary,Cowley GSP,Oxford (Osney) BSP,Primary,33 / 11,51.759796,-1.2556354,SP 51472 07052,,86223,2 x 15 / 21MVA + 1 x 12 / 24MVA,No,20.83,6.23,0.98,0.00,0.00,Red,Upstream Thermal Capacity,5MW,0.00,0.00,Yes,0.00,13.10,17.65,Red,Upstream Thermal Capacity & Substation Fault Level,,,,
E - COWL - 41,E - COWL - 41,England / SEPD,Wootton Road Primary,Cowley GSP,Oxford (Osney) BSP,Primary,33 / 11,51.681033,-1.2891524,SU 49244 98269,,86191,2 x 10 / 14MVA,No,13.48,2.46,3.83,0.00,0.00,Red,Substation Thermal Capacity & Upstream Thermal Capacity,5MW,0.37,0.00,Yes,0.00,25.00,8.86,Red,Upstream Thermal Capacity,,,,
E - COWL - 42,E - COWL - 42,England / SEPD,Bledington Primary,Cowley GSP,Witney BSP,Primary,33 / 11,51.901178,-1.6287369,SP 25641 22580,,11751,1 x 7.5 / 15MVA,Yes,5.01,1.00,1.01,0.00,0.00,Red,Substation Thermal Capacity,5MW,0.77,0.00,Yes,0.00,25.00,4.35,Red,Upstream Thermal Capacity,,,,
E - COWL - 43,E - COWL - 43,England / SEPD,Burford Primary,Cowley GSP,Witney BSP,Primary,33 / 11,51.810811,-1.6290442,SP 25671 12529,,12548,1 x  6.3MVA + 1 x 7.5 / 15MVA,No,4.08,1.10,0.98,0.00,3.57,Green,,5MW,0.00,0.00,Yes,0.00,13.10,7.33,Red,Upstream Thermal Capacity,,,,
E - COWL - 44,E - COWL - 44,England / SEPD,Carterton Primary,Cowley GSP,Witney BSP,Primary,33 / 11,51.768376,-1.5918589,SP 28261 07823,,12948,2 x 15 / 30MVA,No,15.50,3.77,2.16,0.00,15.89,Green,,5MW,0.00,0.14,Yes,0.00,25.00,12.30,Red,Upstream Thermal Capacity,,,,
E - COWL - 45,E - COWL - 45,England / SEPD,Fyfield Primary,Cowley GSP,Witney BSP,Primary,33 / 11,51.693127,-1.3900627,SU 42256 99551,,16348,2 x 7.5 / 15MVA,No,9.04,2.53,7.49,0.00,0.00,Red,Substation Thermal Capacity,5MW,0.00,0.00,Yes,0.00,25.00,5.80,Red,Upstream Thermal Capacity,,,,
E - COWL - 46,E - COWL - 46,England / SEPD,Leafield Primary,Cowley GSP,Witney BSP,Primary,33 / 11,51.835224,-1.5619245,SP 30282 15270,,18348,2 x 5MVA,No,3.93,0.57,1.39,0.00,1.51,Green,,5MW,0.00,0.00,Yes,0.00,13.10,6.00,Red,Upstream Thermal Capacity,,,,
E - COWL - 47,E - COWL - 47,England / SEPD,Rissington Primary,Cowley GSP,Witney BSP,Primary,33 / 11,51.87431,-1.7221537,SP 19225 19563,,22248,2 x 12 / 24MVA,No,5.93,1.40,4.45,0.00,1.62,Green,,5MW,0.00,1.03,Yes,0.00,16.00,4.22,Red,Upstream Thermal Capacity,,,,
E - COWL - 48,E - COWL - 48,England / SEPD,Standlake Primary,Cowley GSP,Witney BSP,Primary,33 / 11,51.718523,-1.4379686,SP 38923 02349,,23853,2 x 5MVA,No,6.01,1.17,1.36,0.00,0.00,Red,Substation Thermal Capacity,5MW,1.90,0.00,Yes,0.00,13.10,3.26,Red,Upstream Thermal Capacity,,,,
E - COWL - 49,E - COWL - 49,England / SEPD,Windrush Park Primary,Cowley GSP,Witney BSP,Primary,33 / 11,51.785493,-1.5176973,SP 33366 09758,,25448,2 x 15 / 30MVA,No,10.10,1.45,11.94,0.00,13.15,Green,,5MW,0.00,0.00,Yes,0.00,16.00,12.72,Red,Upstream Thermal Capacity,,,,
E - COWL - 50,E - COWL - 50,England / SEPD,Witney Town Primary,Cowley GSP,Witney BSP,Primary,33 / 11,51.784144,-1.481789,SP 35844 09625,,25553,2 x 15 / 22.5MVA,No,19.48,5.11,3.56,0.00,0.00,Red,Substation Thermal Capacity,5MW,0.00,0.00,Yes,0.00,13.10,10.12,Red,Upstream Thermal Capacity,,,Replace both transformers with 20 / 40MVA units,Jun-26
E - COWL - 51,E - COWL - 51,England / SEPD,Charlbury Primary,Cowley GSP,Yarnton BSP,Primary,33 / 11,51.862809,-1.478127,SP 36034 18376,,13152,2 x 7.5 / 15MVA,No,6.02,1.28,0.44,0.00,0.00,Red,Upstream Thermal Capacity,5MW,0.00,0.00,Yes,0.00,25.00,7.51,Red,Upstream Thermal Capacity,,,,
E - COWL - 52,E - COWL - 52,England / SEPD,Chipping Norton Primary,Cowley GSP,Yarnton BSP,Primary,33 / 11,51.938753,-1.5449165,SP 31382 26792,,13348,2 x 7.5 / 15MVA,No,10.34,3.56,2.67,0.00,0.00,Red,Upstream Thermal Capacity,5MW,0.00,0.00,Yes,0.00,25.00,7.71,Red,Upstream Thermal Capacity,,,,
E - COWL - 53,E - COWL - 53,England / SEPD,Deddington Primary,Cowley GSP,Yarnton BSP,Primary,33 / 11,51.969442,-1.3212094,SP 46729 30325,,14548,2 x 5MVA,No,4.14,0.60,0.70,0.00,0.00,Red,Substation Thermal Capacity & Upstream Thermal Capacity,5MW,0.29,0.00,Yes,0.00,13.10,3.82,Red,Upstream Thermal Capacity,,,,
E - COWL - 54,E - COWL - 54,England / SEPD,Eynsham Primary,Cowley GSP,Yarnton BSP,Primary,33 / 11,51.789462,-1.3890547,SP 42236 10266,,15148,1 x 12 / 24MVA,Yes,10.23,3.80,9.18,0.00,0.00,Red,Upstream Thermal Capacity,5MW,0.95,0.20,Yes,0.00,25.00,9.48,Red,Upstream Thermal Capacity,Reinforce the 33kV circuit between Witney BSP and Eynsham Primary,Jun-28,,
E - COWL - 55,E - COWL - 55,England / SEPD,Kiddington Primary,Cowley GSP,Yarnton BSP,Primary,33 / 11,51.915557,-1.3709747,SP 43362 24301,,17848,2 x 12 / 24MVA,No,10.92,1.79,9.20,0.00,0.00,Red,Upstream Thermal Capacity,5MW,0.31,0.12,Yes,0.00,13.10,8.81,Red,Upstream Thermal Capacity,,,,
E - COWL - 56,E - COWL - 56,England / SEPD,Lovelace Road Primary,Cowley GSP,Yarnton BSP,Primary,33 / 11,51.789778,-1.270757,SP 50395 10376,,18752,1 x 15 / 30MVA,Yes,5.05,0.99,13.40,0.00,0.00,Red,Substation Thermal Capacity & Upstream Thermal Capacity,5MW,0.00,1.00,Yes,0.00,13.10,8.74,Red,Upstream Thermal Capacity,,,Install a 2nd 15 / 30MVA transformer ,Mar-28
E - COWL - 57,E - COWL - 57,England / SEPD,Woodstock Primary,Cowley GSP,Yarnton BSP,Primary,33 / 11,51.853959,-1.3510276,SP 44795 17462,,26548,2 x 7.5 / 15MVA,No,7.54,1.09,1.71,0.00,0.00,Red,Upstream Thermal Capacity,5MW,0.00,0.01,Yes,0.00,13.10,10.90,Red,Upstream Thermal Capacity,,,,
E - COWL - 58,E - COWL - 58,England / SEPD,Yarnton Primary,Cowley GSP,Yarnton BSP,Primary,33 / 11,51.805535,-1.3012215,SP 48277 12108,,26352,2 x 20 / 40MVA,No,22.96,3.72,43.37,0.00,0.00,Red,Substation Thermal Capacity & Upstream Thermal Capacity,5MW,0.00,0.00,Yes,0.00,25.00,17.59,Red,Upstream Thermal Capacity,,,,
E - EALI - 01,E - EALI - 01,England / SEPD,Ealing GSP,N/A,N/A,GSP,275 / 66,51.501781,-0.29601293,TQ 18370 79470,,"26758, 26759, 26760, 26761",4 x 180MVA,No,194.73,71.34,130.31,0.00,N/A,Green,,5MW,0.11,0.40,No,N/A,21.90,20.50,Amber,Substation Fault Level,,,,
E - EALI - 02,E - EALI - 02,England / SEPD,Ealing BSP,Ealing GSP,N/A,BSP,66 / 22,51.501825,-0.29599686,TQ 18371 79475,,"88865, 88866, 88885, 88886",3 x 20 / 40MVA,No,42.33,9.74,20.87,0.00,49.56,Green,,5MW,0.11,0.01,No,85.61,13.10,14.70,Red,Substation Fault Level & Upstream Fault Level Constraint,,,"Remove Harvard Lane Primary from Ealing BSP (Aug-28)

Replace the 22kV board with 31.5kA break / 78.8kA make switchgear",Jul-29
E - EALI - 03,E - EALI - 03,England / SEPD,Boston Manor Primary,Ealing GSP,N/A,Primary,66 / 11,51.489672,-0.31557893,TQ 17043 78092,,88896,2 x  20 / 40MVA,No,24.91,8.48,12.45,0.00,3.63,Amber,Substation Thermal Capacity,5MW,0.00,0.00,No,46.48,25.00,22.96,Amber,Substation Fault Level & Upstream Fault Level Constraint,,,Replace the existing transformers with 30 / 60MVA units,Jun-28
E - EALI - 04,E - EALI - 04,England / SEPD,Bridge Road Primary,Ealing GSP,N/A,Primary,66 / 11,51.469005,-0.34895102,TQ 14778 75741,,"88924, 88916",3 x 20 / 40MVA,No,32.97,8.94,27.37,0.00,23.50,Green,,5MW,0.00,0.39,No,80.38,26.20,23.91,Amber,Substation Fault Level & Upstream Fault Level Constraint,,,Replace the existing transformers with 80MVA units,Dec-29
E - EALI - 05,E - EALI - 05,England / SEPD,Copley Dene Primary,Ealing GSP,N/A,Primary,66 / 11,51.513909,-0.30889148,TQ 17445 80798,,88947,2 x  30 / 37.5MVA,No,28.32,7.22,13.89,0.00,0.00,Red,Substation Thermal Capacity,5MW,0.00,0.00,No,42.85,26.20,16.65,Amber,Upstream Fault Level Constraint,,,Replace the existing transformers with 80MVA units,Jul-29
E - EALI - 06,E - EALI - 06,England / SEPD,Ealing Primary,Ealing GSP,N/A,Primary,66 / 11,51.501825,-0.29599686,TQ 18371 79475,,"88892, 88887",3 x 20MVA,No,27.99,6.81,17.45,0.00,0.00,Red,Substation Thermal Capacity,5MW,0.00,0.00,No,44.81,25.00,17.50,Amber,Upstream Fault Level Constraint,,,Replace the existing transformers with 20 / 40MVA units,Jan-27
E - EALI - 07,E - EALI - 07,England / SEPD,Ironbridge Primary,Ealing GSP,N/A,Primary,66 / 11,51.508933,-0.35546261,TQ 14226 80171,,88974,1 x 20MVA + 1 x 20 / 40MVA,No,23.45,7.08,15.78,0.00,3.55,Amber,Substation Thermal Capacity,5MW,0.00,0.00,No,26.08,25.00,15.34,Amber,Upstream Fault Level Constraint,,,,
E - EALI - 08,E - EALI - 08,England / SEPD,Southfield Road Primary,Ealing GSP,N/A,Primary,66 / 11,51.503804,-0.26477119,TQ 20533 79746,,"88985, 88980",2 x 20 / 40MVA,No,27.25,4.88,22.50,0.00,0.00,Red,Substation Thermal Capacity,5MW,0.00,0.00,No,42.88,25.00,11.59,Amber,Upstream Fault Level Constraint,,,Replace the existing transformers with 30 / 60MVA units,Sep-27
E - EALI - 09,E - EALI - 09,England / SEPD,Brentford Primary,Ealing GSP,Ealing BSP,Primary,22 / 11,51.491207,-0.30664901,TQ 17659 78277,,"88959, 88954",4 x 10MVA,No,19.52,5.78,13.70,0.00,9.46,Green,,5MW,0.00,0.00,No,34.28,25.00,8.84,Amber,Upstream Fault Level Constraint,,,,
E - EALI - 10,E - EALI - 10,England / SEPD,Dean Gardens Primary,Ealing GSP,Ealing BSP,Primary,22 / 11,51.51023,-0.32198298,TQ 16546 80368,,88969,1 x 10 / 11.5MVA,Yes,3.93,0.75,3.78,0.00,6.32,Green,,5MW,0.11,0.01,No,11.54,13.10,4.67,Amber,Upstream Fault Level Constraint,,,,
E - EALI - 11,E - EALI - 11,England / SEPD,Harvard lane Primary,Ealing GSP,Ealing BSP,Primary,22 / 11,51.488491,-0.27272747,TQ 20021 78030,,88991,2 x 10 / 12.5MVA + 1 x 12 / 24MVA,No,20.34,6.71,3.38,0.00,2.67,Green,,5MW,0.00,0.00,No,29.15,25.00,13.26,Amber,Upstream Fault Level Constraint,Remove Harvard Lane Primary from Ealing BSP via 2 new 66kV circuits from Ealing GSP,Aug-28,Replace the existing transformers with 80MVA units,Aug-28
E - ECLA - 01,E - ECLA - 01,England / SEPD,East Claydon GSP,N/A,N/A,GSP,400 / 132,51.926741,-0.90925992,SP 75100 25920,"Any available capacity at East Claydon GSP is shared with another DNO - NGED
Maximum and minimum demand figures listed account only for SSEN's network","55508, 55510, 55511, 88829",4 x 240MVA (Shared with NGED),No,62.27,8.97,184.69,181.00,N/A,Green,,1MW,49.70,323.86,No,N/A,40.00,21.20,Red,Substation Thermal Capacity,"Transmission works:
Replace 2 x 240MVA transformers with 460MVA units",Mar-31,,
E - ECLA - 02,E - ECLA - 02,England / SEPD,Bicester North BSP,East Claydon GSP,N/A,BSP,132 / 33,51.908958,-1.1332718,SP 59720 23735 ,,"85976, 88841",2 x  45 / 90MVA,No,62.27,8.97,184.69,0.00,0.00,Red,Substation Thermal Capacity,1MW,49.70,59.36,No,0.00,31.00,14.52,Red,Substation Thermal Capacity & Upstream Thermal Capacity,Install a new 132kV circuit from East Claydon GSP to Bicester North BSP,Oct-37,"Replace the existing transformers with 120MVA units and add a 3rd 120MVA transformer, replace the 33kV board with 31.5kA break / 78.8kA make switchgear",Oct-37
E - ECLA - 03,E - ECLA - 03,England / SEPD,Bicester Primary,East Claydon GSP,Bicester North BSP,Primary,33 / 11,51.893394,-1.1530295,SP 58381 21988,,85987,3 X 15 / 30MVA,No,21.67,3.87,24.33,0.00,0.00,Red,Substation Thermal Capacity & Upstream Thermal Capacity,1MW,0.24,1.00,No,0.00,16.00,19.66,Red,Upstream Thermal Capacity & Substation Fault Level,Replace sections of existing dual rutter 33kV overhead lines with 33kV cables between Bicester Primary and Upper Heyford Primary,Jan-28,,
E - ECLA - 04,E - ECLA - 04,England / SEPD,Bicester North Primary,East Claydon GSP,Bicester North BSP,Primary,33 / 11,51.909208,-1.133865,SP 59679 23762,,88851,2 x 15 / 30MVA,No,16.76,4.67,35.92,0.00,0.00,Red,Substation Thermal Capacity & Upstream Thermal Capacity,1MW,0.00,0.00,No,0.00,25.00,18.70,Red,Upstream Thermal Capacity,,,Add a 3rd 15 / 30MVA transformer,Oct-37
E - ECLA - 05,E - ECLA - 05,England / SEPD,Cottisford Primary,East Claydon GSP,Bicester North BSP,Primary,33 / 11,51.975494,-1.1421653,SP 59021 31128,,86048,1 x 4MVA,Yes,3.18,0.46,0.61,0.00,0.00,Red,Substation Thermal Capacity & Upstream Thermal Capacity,1MW,0.58,0.12,No,0.00,5.11,2.63,Red,Upstream Thermal Capacity,,,,
E - ECLA - 06,E - ECLA - 06,England / SEPD,Upper Heyford Primary,East Claydon GSP,Bicester North BSP,Primary,33 / 11,51.927122,-1.2488285,SP 51750 25667,,85979,2 x 7.5 / 15MVA,No,7.52,1.08,5.45,0.00,0.00,Red,Upstream Thermal Capacity,1MW,3.09,0.74,No,0.00,13.10,10.41,Red,Upstream Thermal Capacity,Replace sections of existing dual rutter 33kV overhead lines with 33kV cables between Bicester Primary and Upper Heyford Primary,Jan-28,,
E - FAWL - 01,E - FAWL - 01,England / SEPD,Fawley GSP,N/A,N/A,GSP,400 / 132,50.820664,-1.3307404,SU 47240 02560,,"15014, 15018, 15410, 15413",3 x 240MVA,No,178.39,20.67,35.76,114.18,N/A,Green,,5MW,479.57,297.40,Yes,N/A,31.50,17.79,Red,Substation Thermal Capacity,,,,
E - FAWL - 02,E - FAWL - 02,England / SEPD,Cowes BSP,Fawley GSP,N/A,BSP,132 / 33,50.745665,-1.2853344,SZ 50519 94250,Cowes and Wooton Common BSP's are run in parallel so the estimated headroom includes both BSP's. Note that due to this network arrangement detailed studies are required regardless of any estimated headroom shown,13930,1 x 22.5 / 45MVA + 1 x 45MVA,No,38.23,6.50,5.18,0.00,0.00,Red,Substation Thermal Capacity,5MW,15.49,15.00,Yes,0.00,25.00,17.10,Red,Substation Thermal Capacity & Upstream Thermal Capacity,,,,
E - FAWL - 03,E - FAWL - 03,England / SEPD,Langley BSP,Fawley GSP,N/A,BSP,132 / 33,50.810181,-1.360057,SU 45185 01376,,18230,2 x 22.5 / 45MVA,No,20.59,5.36,10.17,0.00,16.52,Green,,5MW,7.60,0.00,Yes,0.00,25.00,12.76,Red,Upstream Thermal Capacity,,,,
E - FAWL - 04,E - FAWL - 04,England / SEPD,Wootton Common BSP,Fawley GSP,N/A,BSP,133 / 33,50.710007,-1.2537664,SZ 52786 90307,Cowes and Wooton Common BSP's are run in parallel so the estimated headroom includes both BSP's. Note that due to this network arrangement detailed studies are required regardless of any estimated headroom shown,"14967, 14966, 25830",2 x 45 / 90MVA,No,68.90,14.98,20.41,0.00,0.00,Red,Substation Thermal Capacity,5MW,77.32,48.34,Yes,0.00,25.00,15.69,Red,Substation Thermal Capacity & Upstream Thermal Capacity,,,,
E - FAWL - 05,E - FAWL - 05,England / SEPD,Cowes Primary,Fawley GSP,Cowes BSP,Primary,33 / 11,50.746401,-1.2850965,SZ 50535 94332,Cowes and Wooton Common BSP's are run in parallel so the estimated headroom includes both BSP's. Note that due to this network arrangement detailed studies are required regardless of any estimated headroom shown,88670,2 x 15 / 30MVA,No,19.53,5.24,4.22,0.00,0.00,Red,Upstream Thermal Capacity,5MW,3.33,0.00,Yes,0.00,13.10,10.53,Red,Upstream Thermal Capacity,,,,
E - FAWL - 06,E - FAWL - 06,England / SEPD,Freshwater Primary,Fawley GSP,Cowes BSP,Primary,33 / 11,50.681336,-1.5155246,SZ 34325 86965,Cowes and Wooton Common BSP's are run in parallel so the estimated headroom includes both BSP's. Note that due to this network arrangement detailed studies are required regardless of any estimated headroom shown,88683,2 x 7.5 / 15MVA,No,5.94,1.26,0.09,0.00,0.00,Red,Upstream Thermal Capacity,5MW,0.39,0.00,Yes,0.00,25.00,6.39,Red,Upstream Thermal Capacity,,,,
E - FAWL - 07,E - FAWL - 07,England / SEPD,Shanklin Primary,Fawley GSP,Cowes BSP,Primary,33 / 11,50.634046,-1.1839465,SZ 57809 81912,Cowes and Wooton Common BSP's are run in parallel so the estimated headroom includes both BSP's. Note that due to this network arrangement detailed studies are required regardless of any estimated headroom shown,88754,2 x 15 / 30MVA,No,10.46,2.55,3.73,0.00,0.00,Red,Upstream Thermal Capacity,5MW,2.66,0.00,Yes,0.00,13.10,7.51,Red,Upstream Thermal Capacity,,,,
E - FAWL - 08,E - FAWL - 08,England / SEPD,Binstead Primary,Fawley GSP,Wootton Common BSP,Primary,33 / 11,50.719488,-1.2022961,SZ 56409 91399,Cowes and Wooton Common BSP's are run in parallel so the estimated headroom includes both BSP's. Note that due to this network arrangement detailed studies are required regardless of any estimated headroom shown,88697,2 x 7.5 / 15MVA,No,5.08,0.85,0.14,0.00,0.00,Red,Upstream Thermal Capacity,5MW,0.00,0.00,Yes,0.00,13.10,7.50,Red,Upstream Thermal Capacity,,,,
E - FAWL - 09,E - FAWL - 09,England / SEPD,Newport Primary,Fawley GSP,Wootton Common BSP,Primary,33 / 11,50.703387,-1.2922503,SZ 50076 89544,Cowes and Wooton Common BSP's are run in parallel so the estimated headroom includes both BSP's. Note that due to this network arrangement detailed studies are required regardless of any estimated headroom shown,"88773, 88786",3 x 15 / 30MVA,No,24.39,5.07,7.35,0.00,0.00,Red,Upstream Thermal Capacity,5MW,0.62,0.00,Yes,0.00,13.10,12.12,Red,Upstream Thermal Capacity & Substation Fault Level,,,,
E - FAWL - 10,E - FAWL - 10,England / SEPD,Ryde Primary,Fawley GSP,Wootton Common BSP,Primary,33 / 11,50.724336,-1.1576577,SZ 59554 91973,Cowes and Wooton Common BSP's are run in parallel so the estimated headroom includes both BSP's. Note that due to this network arrangement detailed studies are required regardless of any estimated headroom shown,88748,2 x 15 / 30MVA,No,17.13,3.46,4.71,0.00,0.00,Red,Upstream Thermal Capacity,5MW,0.00,0.00,Yes,0.00,13.10,8.68,Red,Upstream Thermal Capacity,,,,
E - FAWL - 11,E - FAWL - 11,England / SEPD,Sandown Primary,Fawley GSP,Wootton Common BSP,Primary,33 / 11,50.662071,-1.1542019,SZ 59877 85052,Cowes and Wooton Common BSP's are run in parallel so the estimated headroom includes both BSP's. Note that due to this network arrangement detailed studies are required regardless of any estimated headroom shown,88733,2 x 7.5 / 15MVA,No,11.89,2.61,4.04,0.00,0.00,Red,Substation Thermal Capacity & Upstream Thermal Capacity,5MW,0.00,0.00,Yes,0.00,13.10,7.34,Red,Upstream Thermal Capacity,,,,
E - FAWL - 12,E - FAWL - 12,England / SEPD,Shalfleet Primary,Fawley GSP,Wootton Common BSP,Primary,33 / 11,50.696006,-1.4233004,SZ 40828 88643,Cowes and Wooton Common BSP's are run in parallel so the estimated headroom includes both BSP's. Note that due to this network arrangement detailed studies are required regardless of any estimated headroom shown,88676,2 x 7.5 / 15MVA,No,6.03,1.12,0.87,0.00,0.00,Red,Upstream Thermal Capacity,5MW,1.43,0.00,Yes,0.00,25.00,7.56,Red,Upstream Thermal Capacity,,,,
E - FAWL - 13,E - FAWL - 13,England / SEPD,Ventnor Primary,Fawley GSP,Wootton Common BSP,Primary,33 / 11,50.597745,-1.2080428,SZ 56148 77857,Cowes and Wooton Common BSP's are run in parallel so the estimated headroom includes both BSP's. Note that due to this network arrangement detailed studies are required regardless of any estimated headroom shown,88794,2 x 15 / 30MVA,No,8.80,1.27,0.44,0.00,0.00,Red,Upstream Thermal Capacity,5MW,0.00,0.00,Yes,0.00,16.00,9.59,Red,Upstream Thermal Capacity,,,,
E - FAWL - 14,E - FAWL - 14,England / SEPD,Butts Ash Primary,Fawley GSP,Langley BSP,Primary,33 / 11,50.849954,-1.4058504,SU 41923 05772,,88095,2 x 15 / 30MVA,No,13.23,2.71,1.37,0.00,8.86,Green,,5MW,0.00,0.00,Yes,0.00,25.00,9.90,Red,Upstream Thermal Capacity,,,,
E - FAWL - 15,E - FAWL - 15,England / SEPD,Langley Primary,Fawley GSP,Langley BSP,Primary,33 / 11,50.810561,-1.360435,SU 45158 01418,,88103,2 x 7.5 / 15MVA,No,9.90,1.43,7.74,0.00,0.00,Red,Substation Thermal Capacity,5MW,0.20,0.00,Yes,0.00,25.00,12.79,Red,Upstream Thermal Capacity,,,,
E - FLEE - 01,E - FLEE - 01,England / SEPD,Fleet-Bramley GSP,N/A,N/A,GSP,400 / 132,51.249944,-0.88150025,SU 78160 50680,,"11920, 11921, 11922, 11923, 12410, 12411",9 x 240MVA,No,1093.26,462.89,582.78,226.77,N/A,Green,,5MW,339.64,751.08,Yes,N/A,31.50,24.92,Red,Substation Thermal Capacity,,,"Split the Fleet-Bramley 132kV network and transfer Burghfield and Reading BSP's to the new Bramley 132kV board (Jul-30)

Replace the 132kV board with 40kA break / 100kA make switchgear at the Fleet GSP site",Aug-31
E - FLEE - 02,E - FLEE - 02,England / SEPD,Aldershot BSP,Fleet-Bramley GSP,N/A,BSP,132 / 33,51.231739,-0.77076743,SU 85922 48779,,"10130, 12914",3 x 45 / 90MVA,No,110.41,26.93,36.11,0.00,0.00,Red,Substation Thermal Capacity,5MW,3.65,0.40,Yes,0.00,31.50,4.40,Red,Upstream Thermal Capacity,,,,
E - FLEE - 03,E - FLEE - 03,England / SEPD,Alton BSP,Fleet-Bramley GSP,N/A,BSP,132 / 33,51.152594,-0.96149453,SU 72730 39772,,"10330, 12603",2 x 90MVA,No,66.63,15.81,47.69,0.00,22.91,Green,,5MW,48.90,85.09,Yes,0.00,25.00,18.67,Red,Substation Thermal Capacity & Upstream Thermal Capacity,"Establish a new 132kV switching station in the area of the Winchester tee point that connects Fleet GSP, Nusling GSP, Alton BSP and Fernhurst BSP ",Nov-29,Replace the 33kV board with 31.5kA break / 78.8kA make switchgear,Feb-29
E - FLEE - 04,E - FLEE - 04,England / SEPD,Bracknell BSP,Fleet-Bramley GSP,N/A,BSP,132 / 33,51.417297,-0.76430175,SU 86026 69422,,"13062, 13083, 13108",2 x 45 / 90MVA + 2 x 65 / 90MVA,No,119.63,34.62,75.82,0.00,63.67,Green,,5MW,41.13,1.16,Yes,0.00,31.50,22.01,Red,Upstream Thermal Capacity,,,,
E - FLEE - 05,E - FLEE - 05,England / SEPD,Burghfield (Main) BSP,Fleet-Bramley GSP,N/A,BSP,132 / 33,51.429451,-1.0028498,SU 69420 70521,,"12630, 13168",2 x 45 / 90MVA,No,55.54,10.39,44.59,0.00,34.82,Green,,5MW,51.68,3.00,Yes,0.00,31.50,15.22,Red,Upstream Thermal Capacity,,,,
E - FLEE - 06,E - FLEE - 06,England / SEPD,Burghfield (Reserve) BSP,Fleet-Bramley GSP,N/A,BSP,132 / 33,51.429473,-1.0026164,SU 69436 70524,,13167,2 x 45 / 90MVA,No,51.90,7.48,19.67,5.00,52.90,Green,,5MW,30.64,39.78,Yes,0.00,31.50,14.05,Red,Upstream Thermal Capacity,,,,
E - FLEE - 07,E - FLEE - 07,England / SEPD,Camberley (Main) BSP,Fleet-Bramley GSP,N/A,BSP,132 / 33,51.327873,-0.75947261,SU 86530 59483,,"13187, 13288",2 x 45 / 90MVA,No,73.85,27.60,18.19,0.00,31.73,Green,,5MW,0.53,0.23,Yes,0.00,25.00,13.58,Red,Upstream Thermal Capacity,,,,
E - FLEE - 08,E - FLEE - 08,England / SEPD,Camberley (Reserve) BSP,Fleet-Bramley GSP,N/A,BSP,132 / 33,51.327873,-0.75947261,SU 86530 59483,,13305,2 x 45 / 90MVA,No,54.78,15.82,32.70,0.00,42.73,Green,,5MW,0.41,0.25,Yes,0.00,25.00,13.40,Red,Upstream Thermal Capacity,,,,
E - FLEE - 09,E - FLEE - 09,England / SEPD,Coxmoor Wood BSP,Fleet-Bramley GSP,N/A,BSP,132 / 33,51.251153,-0.87912099,SU 78324 50817,,14130,2 x 45 / 90MVA,No,84.17,12.13,23.25,10.97,20.48,Green,,5MW,34.09,31.90,Yes,0.00,25.00,16.04,Red,Upstream Thermal Capacity,,,Add a 3rd 90MVA transformer,Dec-31
E - FLEE - 10,E - FLEE - 10,England / SEPD,Fernhurst BSP,Fleet-Bramley GSP,N/A,BSP,133 / 33,51.047896,-0.76706082,SU 86523 28339,,"12813, 15730",2 x 45 / 90MVA,No,75.66,18.68,41.36,0.00,18.23,Green,,5MW,31.29,48.26,Yes,0.00,17.50,15.73,Red,Upstream Thermal Capacity,"Establish a new 132kV switching station in the area of the Winchester tee point that connects Fleet GSP, Nusling GSP, Alton BSP and Fernhurst BSP ",Nov-29,,
E - FLEE - 11,E - FLEE - 11,England / SEPD,Maidenhead BSP,Fleet-Bramley GSP,N/A,BSP,132 / 33,51.511249,-0.75360552,SU 86592 79883,,"13008, 13009, 13010",1 x 45 / 90MVA + 1 x 65 / 90MVA,No,70.89,17.96,37.47,0.00,23.18,Green,,5MW,0.00,18.50,Yes,0.00,31.50,12.33,Red,Upstream Thermal Capacity,,,,
E - FLEE - 12,E - FLEE - 12,England / SEPD,Pyestock BSP,Fleet-Bramley GSP,N/A,BSP,132 / 33,51.284088,-0.81213017,SU 82940 54553,,"21632, 21634",1 x 45 / 90MVA,No,32.62,6.77,77.45,0.00,35.76,Green,,5MW,30.48,0.00,Yes,0.00,25.00,17.57,Red,Upstream Thermal Capacity,,,,
E - FLEE - 13,E - FLEE - 13,England / SEPD,Reading BSP,Fleet-Bramley GSP,N/A,BSP,132 / 33,51.45877,-0.92704155,SU 74642 73856,,"12501, 12533, 12534, 21930",2 x 45 / 90MVA + 1 x 55 / 90MVA,No,123.57,42.56,66.73,0.00,0.00,Red,Substation Thermal Capacity,5MW,15.69,51.80,Yes,0.00,25.00,25.17,Red,Upstream Thermal Capacity & Substation Fault Level,,,Add a 4th 90MVA transformer,Sep-26
E - FLEE - 14,E - FLEE - 14,England / SEPD,Reading Town BSP,Fleet-Bramley GSP,N/A,BSP,132 / 33,51.461457,-0.97105467,SU 71580 74111,,"12762, 22030",2 x 45 / 90MVA,No,52.70,15.49,19.65,0.00,52.74,Green,,5MW,0.57,0.00,Yes,0.00,17.50,15.07,Red,Upstream Thermal Capacity,,,,
E - FLEE - 15,E - FLEE - 15,England / SEPD,Wokingham BSP,Fleet-Bramley GSP,N/A,BSP,132 / 33,51.402441,-0.85724149,SU 79589 67665,,"12576, 25616",2 x 45 / 90MVA,No,25.30,6.89,12.12,0.00,83.66,Green,,5MW,0.00,0.13,Yes,0.00,31.50,13.37,Red,Upstream Thermal Capacity,,,,
E - FLEE - 16,E - FLEE - 16,England / SEPD,Aldershot Primary,Fleet-Bramley GSP,Aldershot BSP,Primary,33 / 11,51.232226,-0.76998103,SU 85976 48834,,12203,2 x 15 / 30MVA,No,10.93,2.44,2.96,0.00,0.00,Red,Upstream Thermal Capacity,5MW,2.28,0.12,Yes,0.00,25.00,8.35,Red,Upstream Thermal Capacity,,,,
E - FLEE - 17,E - FLEE - 17,England / SEPD,Farnham Primary,Fleet-Bramley GSP,Aldershot BSP,Primary,33 / 11,51.217907,-0.79125349,SU 84517 47217,,87017,1 x 20MVA + 1 x 15 / 30MVA,No,15.78,4.03,7.81,0.00,0.00,Red,Upstream Thermal Capacity,5MW,0.00,0.00,Yes,0.00,13.10,6.90,Red,Upstream Thermal Capacity,Replace existing rutter pole 33kV overhead line sections between Aldershot BSP and Farnham Primary with 33kV cable,Apr-26,,
E - FLEE - 18,E - FLEE - 18,England / SEPD,Godalming Primary,Fleet-Bramley GSP,Aldershot BSP,Primary,33 / 11,51.190421,-0.6170161,SU 96743 44375,,87020,2 x 15 / 30MVA,No,16.82,4.21,3.97,0.00,0.00,Red,Upstream Thermal Capacity,5MW,0.00,0.02,Yes,0.00,13.10,4.98,Red,Upstream Thermal Capacity,,,,
E - FLEE - 19,E - FLEE - 19,England / SEPD,Hindhead Primary,Fleet-Bramley GSP,Aldershot BSP,Primary,33 / 11,51.120751,-0.7350071,SU 88631 36479,,87018,3 x 15 / 30MVA,No,10.76,2.96,2.78,0.00,0.00,Red,Upstream Thermal Capacity,5MW,0.00,0.20,Yes,0.00,20.00,4.02,Red,Upstream Thermal Capacity,,,,
E - FLEE - 20,E - FLEE - 20,England / SEPD,Laburnum Road Primary,Fleet-Bramley GSP,Aldershot BSP,Primary,33 / 11,51.246972,-0.76900031,SU 86017 50475,,17950,3 x 12 / 24MVA,No,21.04,4.40,9.91,0.00,0.00,Red,Upstream Thermal Capacity,5MW,0.13,0.00,Yes,0.00,25.00,8.34,Red,Upstream Thermal Capacity,,,,
E - FLEE - 21,E - FLEE - 21,England / SEPD,Milford Primary,Fleet-Bramley GSP,Aldershot BSP,Primary,33 / 11,51.178561,-0.64632756,SU 94719 43018,,87019,2 x 12 / 24MVA,No,11.78,3.71,4.42,0.00,0.00,Red,Upstream Thermal Capacity,5MW,0.00,0.00,Yes,0.00,20.00,4.74,Red,Upstream Thermal Capacity,,,,
E - FLEE - 22,E - FLEE - 22,England / SEPD,Normandy Primary,Fleet-Bramley GSP,Aldershot BSP,Primary,33 / 11,51.267587,-0.66518648,SU 93221 52894,,87021,1 x 6.25MVA,Yes,2.14,0.31,1.43,0.00,0.00,Red,Upstream Thermal Capacity,5MW,0.00,0.00,Yes,0.00,16.00,2.28,Red,Upstream Thermal Capacity,,,,
E - FLEE - 23,E - FLEE - 23,England / SEPD,Tongham Primary,Fleet-Bramley GSP,Aldershot BSP,Primary,33 / 11,51.23774,-0.73639986,SU 88310 49487,,12442,2 x 15 / 30MVA,No,14.73,3.37,2.84,0.00,0.00,Red,Upstream Thermal Capacity,5MW,1.24,0.07,Yes,0.00,16.00,7.85,Red,Upstream Thermal Capacity,Reinforce the 33kV circuits between Aldershot BSP and Tongham Primary and remove Farnborough from the Aldershot - Tongham 33kV circuit ,Mar-28,,
E - FLEE - 24,E - FLEE - 24,England / SEPD,Alresford Primary,Fleet-Bramley GSP,Alton BSP,Primary,33 / 11,51.088816,-1.1491999,SU 59684 32511,,10050,2 x 10MVA,No,10.72,2.88,2.98,0.00,0.30,Red,Substation Thermal Capacity,5MW,0.00,4.77,Yes,0.00,13.10,7.75,Red,Upstream Thermal Capacity,Reinforce the 33kV circuit between Alton BSP and Alresord Primary,Mar-28,Replace both transformers with 15 / 30MVA units,Mar-28
E - FLEE - 25,E - FLEE - 25,England / SEPD,Alton Local Primary,Fleet-Bramley GSP,Alton BSP,Primary,33 / 11,51.151139,-0.96575932,SU 72434 39606,,"10250, 10251",2 x 12 / 24MVA,No,25.07,5.23,6.56,0.00,18.47,Green,,5MW,0.24,0.40,Yes,0.00,13.10,10.93,Red,Upstream Thermal Capacity,,,,
E - FLEE - 26,E - FLEE - 26,England / SEPD,Bordon Primary,Fleet-Bramley GSP,Alton BSP,Primary,33 / 11,51.110823,-0.82634825,SU 82256 35269,,12150,3 X 10MVA,No,18.55,3.07,7.35,0.00,1.14,Red,Substation Thermal Capacity,5MW,0.00,0.00,Yes,0.00,13.10,11.48,Red,Upstream Thermal Capacity,Establish a new Primary substation Bordon North including 2 x 7.5 / 15MVA transformers fed via 2 x new 33kV circuits from Alton BSP and 1 x 33kV circuit to the existing Bordon Primary ,Sep-26,,
E - FLEE - 27,E - FLEE - 27,England / SEPD,Herriard Primary,Fleet-Bramley GSP,Alton BSP,Primary,33 / 11,51.200071,-1.0457323,SU 66770 44972,,12393,1 x 7.5MVA + 1 x 10MVA,No,5.09,0.73,0.09,0.00,2.36,Green,,5MW,6.65,0.00,Yes,0.00,16.00,5.02,Red,Upstream Thermal Capacity,,,,
E - FLEE - 28,E - FLEE - 28,England / SEPD,Five Oaks Primary,Fleet-Bramley GSP,Fernhurst BSP,Primary,33 / 11,51.050213,-0.42282521,TQ 10647 29057,,12196,2 x 7.5 / 15MVA,No,9.30,1.34,3.82,0.00,2.64,Green,,5MW,0.95,0.00,Yes,0.00,13.10,7.00,Red,Upstream Thermal Capacity,,,,
E - FLEE - 29,E - FLEE - 29,England / SEPD,Haslemere Primary,Fleet-Bramley GSP,Fernhurst BSP,Primary,33 / 11,51.077775,-0.72662903,SU 89300 31710,,16850,1 x 20MVA + 1 x 15 / 30MVA,No,16.49,2.72,3.61,0.00,7.54,Green,,5MW,0.00,0.11,Yes,0.00,25.00,11.17,Red,Upstream Thermal Capacity,,,,
E - FLEE - 30,E - FLEE - 30,England / SEPD,Haslingborne Primary,Fleet-Bramley GSP,Fernhurst BSP,Primary,33 / 11,50.973539,-0.60288554,SU 98188 20276,,16450,2 x 10MVA,No,6.48,1.44,0.97,0.00,5.97,Green,,5MW,0.00,0.00,Yes,0.00,25.00,3.80,Red,Upstream Thermal Capacity,,,Replace both transformers with 12 / 24MVA units,Nov-26
E - FLEE - 31,E - FLEE - 31,England / SEPD,Langley Court Primary,Fleet-Bramley GSP,Fernhurst BSP,Primary,33 / 11,51.055166,-0.84785962,SU 80847 29056,,18150,2 x 12 / 24MVA,No,8.87,2.24,8.80,0.00,7.16,Green,,5MW,0.00,0.00,Yes,0.00,25.00,12.48,Red,Upstream Thermal Capacity,,,,
E - FLEE - 32,E - FLEE - 32,England / SEPD,Midhurst Primary,Fleet-Bramley GSP,Fernhurst BSP,Primary,33 / 11,50.968682,-0.74631968,SU 88127 19555,,19850,2 x 15 / 30MVA,No,11.48,3.14,2.69,0.00,15.30,Green,,5MW,0.95,2.00,Yes,0.00,13.10,10.59,Red,Upstream Thermal Capacity,,,,
E - FLEE - 33,E - FLEE - 33,England / SEPD,Petersfield Primary,Fleet-Bramley GSP,Fernhurst BSP,Primary,33 / 11,51.005395,-0.94421714,SU 74173 23420,,21050,2 x 15 / 30MVA,No,19.01,4.23,8.68,0.00,4.25,Green,,5MW,0.24,0.15,Yes,0.00,13.10,11.34,Red,Upstream Thermal Capacity,,,,
E - FLEE - 34,E - FLEE - 34,England / SEPD,Plaistow Primary,Fleet-Bramley GSP,Fernhurst BSP,Primary,33 / 11,51.056914,-0.54497086,TQ 02071 29626,,21150,2 x 7.5 / 15MVA,No,5.02,0.80,15.45,0.00,1.86,Amber,Substation Thermal Capacity,5MW,4.75,0.00,Yes,0.00,25.00,7.85,Red,Upstream Thermal Capacity,,,Replace both transformers with 15 / 30MVA units,Apr-28
E - FLEE - 35,E - FLEE - 35,England / SEPD,Preston Candover Primary,Fleet-Bramley GSP,Fernhurst BSP,Primary,33 / 11,51.166193,-1.1306863,SU 60879 41131,,21550,2 x 7.5 / 15MVA,No,5.57,0.93,9.14,0.00,3.82,Green,,5MW,0.00,0.00,Yes,0.00,25.00,7.37,Red,Upstream Thermal Capacity,,,,
E - FLEE - 36,E - FLEE - 36,England / SEPD,Ascot Primary,Fleet-Bramley GSP,Bracknell BSP,Primary,33 / 11,51.411326,-0.68409816,SU 91615 68855,,87217,2 x 15 / 30MVA,No,13.13,4.62,2.38,0.00,17.79,Green,,5MW,0.00,0.00,Yes,0.00,25.00,9.34,Red,Upstream Thermal Capacity,,,,
E - FLEE - 37,E - FLEE - 37,England / SEPD,Bagshot Primary,Fleet-Bramley GSP,Bracknell BSP,Primary,33 / 11,51.363474,-0.69255137,SU 91122 63523,,87218,2 x 12 / 24MVA,No,12.79,2.51,5.06,0.00,7.48,Green,,5MW,0.00,0.00,Yes,0.00,20.00,8.23,Red,Upstream Thermal Capacity,,,,
E - FLEE - 38,E - FLEE - 38,England / SEPD,Bracknell Primary,Fleet-Bramley GSP,Bracknell BSP,Primary,33 / 11,51.417065,-0.76360335,SU 86075 69397,,87219,3 x 20 / 40MVA,No,33.08,9.28,15.46,0.00,31.36,Green,,5MW,0.00,0.11,Yes,0.00,20.00,17.75,Red,Upstream Thermal Capacity,,,,
E - FLEE - 39,E - FLEE - 39,England / SEPD,Chobham Primary,Fleet-Bramley GSP,Bracknell BSP,Primary,33 / 11,51.359776,-0.60574616,SU 97173 63223,,87220,2 x 7.5 / 11MVA,No,10.43,2.94,4.91,0.00,0.11,Red,Substation Thermal Capacity,5MW,0.00,0.00,Yes,0.00,25.00,8.26,Red,Upstream Thermal Capacity,,,Replace both transformers with 12 / 24MVA units,Oct-26
E - FLEE - 40,E - FLEE - 40,England / SEPD,Easthampstead Primary,Fleet-Bramley GSP,Bracknell BSP,Primary,33 / 11,51.39725,-0.76308822,SU 86148 67194,,87221,2 x 15 / 30MVA,No,16.95,3.37,3.47,0.00,9.03,Green,,5MW,0.09,0.00,Yes,0.00,25.00,10.80,Red,Upstream Thermal Capacity,,,,
E - FLEE - 41,E - FLEE - 41,England / SEPD,MVEE Primary,Fleet-Bramley GSP,Bracknell BSP,Primary,33 / 11,51.384081,-0.59139871,SU 98120 65945,,87223,2 x 15 / 30MVA,No,5.59,1.01,4.02,0.00,18.01,Green,,5MW,3.04,0.00,Yes,0.00,13.10,8.07,Red,Upstream Thermal Capacity,,,,
E - FLEE - 42,E - FLEE - 42,England / SEPD,Sunninghill Primary,Fleet-Bramley GSP,Bracknell BSP,Primary,33 / 6.6,51.399749,-0.65363807,SU 93757 67606,,87224,2 x 12 / 24MVA,No,9.84,2.42,1.55,0.00,11.96,Green,,5MW,0.00,0.00,Yes,0.00,20.00,8.72,Red,Upstream Thermal Capacity,,,,
E - FLEE - 43,E - FLEE - 43,England / SEPD,Warfield Primary,Fleet-Bramley GSP,Bracknell BSP,Primary,33 / 11,51.434774,-0.75039344,SU 86960 71382,,87225,2 x 15 / 30MVA,No,20.25,4.81,3.96,0.00,5.75,Green,,5MW,0.00,1.00,Yes,0.00,13.10,10.40,Red,Upstream Thermal Capacity,,,,
E - FLEE - 44,E - FLEE - 44,England / SEPD,Courages Primary,Fleet-Bramley GSP,Burghfield (Main) BSP,Primary,33 / 11,51.420707,-0.98045501,SU 70990 69570,,86628,2 x 15 / 30MVA,No,13.27,5.39,12.55,0.00,6.39,Green,,5MW,4.28,2.00,Yes,0.00,13.10,10.58,Red,Upstream Thermal Capacity,,,,
E - FLEE - 45,E - FLEE - 45,England / SEPD,Green Park Primary,Fleet-Bramley GSP,Burghfield (Main) BSP,Primary,33 / 11,51.424681,-1.0006598,SU 69579 69993,,86644,2 x 20 / 40MVA,No,10.22,2.81,23.46,0.00,9.08,Green,,5MW,0.00,0.00,Yes,0.00,25.00,10.45,Red,Upstream Thermal Capacity,,,,
E - FLEE - 46,E - FLEE - 46,England / SEPD,Kentwood Hill Primary,Fleet-Bramley GSP,Burghfield (Main) BSP,Primary,33 / 11,51.461438,-1.0355136,SU 67102 74048,,86629,2 x 20 / 28MVA,No,18.04,3.77,0.91,0.00,7.90,Green,,5MW,0.00,0.00,Yes,0.00,16.00,11.47,Red,Upstream Thermal Capacity,,,,
E - FLEE - 47,E - FLEE - 47,England / SEPD,Whitley Wood Primary,Fleet-Bramley GSP,Burghfield (Main) BSP,Primary,33 / 11,51.421348,-0.95423686,SU 72812 69667,,86637,2 x 15 / 30MVA,No,13.73,3.73,4.88,0.00,20.57,Green,,5MW,0.00,1.00,Yes,0.00,25.00,9.26,Red,Upstream Thermal Capacity,,,,
E - FLEE - 48,E - FLEE - 48,England / SEPD,Wilson Road Primary,Fleet-Bramley GSP,Burghfield (Main) BSP,Primary,33 / 11,51.454493,-1.0049612,SU 69235 73304,,86638,2 x 15 / 30MVA,No,14.71,3.19,2.79,0.00,12.48,Green,,5MW,0.00,0.00,Yes,0.00,25.00,11.84,Red,Upstream Thermal Capacity,,,,
E - FLEE - 49,E - FLEE - 49,England / SEPD,Goring Primary,Fleet-Bramley GSP,Burghfield (Reserve) BSP,Primary,33 / 11,51.54174,-1.1318284,SU 60305 82895,,86676,2 x 7.5 / 15MVA,No,6.20,1.24,0.21,0.00,9.99,Green,,5MW,6.76,0.00,Yes,0.00,25.00,7.62,Red,Upstream Thermal Capacity,,,,
E - FLEE - 50,E - FLEE - 50,England / SEPD,Mortimer Primary,Fleet-Bramley GSP,Burghfield (Reserve) BSP,Primary,33 / 11,51.372583,-1.107289,SU 62236 64103,,86630,1 x 7.5 / 15MVA,Yes,8.01,1.27,2.65,0.00,4.73,Green,,5MW,0.00,0.00,Yes,0.00,13.10,6.49,Red,Upstream Thermal Capacity,,,,
E - FLEE - 51,E - FLEE - 51,England / SEPD,Padworth Primary,Fleet-Bramley GSP,Burghfield (Reserve) BSP,Primary,33 / 11,51.390105,-1.1068476,SU 62243 66052,,86631,1 x 7.5 / 10.5MVA,Yes,3.22,0.46,0.12,0.00,3.80,Green,,5MW,0.00,0.00,Yes,0.00,13.10,4.85,Red,Upstream Thermal Capacity,,,,
E - FLEE - 52,E - FLEE - 52,England / SEPD,Pangbourne Primary,Fleet-Bramley GSP,Burghfield (Reserve) BSP,Primary,33 / 11,51.480757,-1.0947532,SU 62960 76144,,86632,2 x 15 / 30MVA,No,9.54,2.04,1.28,0.00,18.16,Green,,5MW,0.00,0.00,Yes,0.00,25.00,9.16,Red,Upstream Thermal Capacity,,,,
E - FLEE - 53,E - FLEE - 53,England / SEPD,Trash Green Primary,Fleet-Bramley GSP,Burghfield (Reserve) BSP,Primary,33 / 11,51.413862,-1.0487087,SU 66254 68745,,86636,2 x 7.5 / 15MVA,No,10.07,2.07,3.33,0.00,1.85,Green,,5MW,1.79,0.00,Yes,0.00,16.00,8.53,Red,Upstream Thermal Capacity,,,,
E - FLEE - 54,E - FLEE - 54,England / SEPD,Woodcote Primary,Fleet-Bramley GSP,Burghfield (Reserve) BSP,Primary,33 / 11,51.529859,-1.0726605,SU 64425 81624,,86639,1 x 7.5MVA + 1 x 10MVA,No,4.04,0.89,1.33,0.00,4.72,Green,,5MW,0.00,0.78,Yes,0.00,16.00,3.99,Red,Upstream Thermal Capacity,,,,
E - FLEE - 55,E - FLEE - 55,England / SEPD,Southcote Primary,Fleet-Bramley GSP,Burghfield (Reserve) BSP,Primary,33 / 11,51.436827,-1.0202497,SU 68199 71325,,86634,2 x 15MVA,No,7.58,1.60,5.59,5.00,7.57,Green,,5MW,0.00,5.00,Yes,0.00,16.00,11.85,Red,Upstream Thermal Capacity,Replace sections of existing 33kV overhead line between Southcote Primary and Theale Primary with underground cable,Mar-29,,
E - FLEE - 56,E - FLEE - 56,England / SEPD,Theale Primary,Fleet-Bramley GSP,Burghfield (Reserve) BSP,Primary,33 / 11,51.434443,-1.0698459,SU 64755 71015,,86633,2 x 12 / 24MVA,No,8.08,1.86,5.16,0.00,12.30,Green,,5MW,0.24,2.00,Yes,0.00,20.00,8.07,Red,Upstream Thermal Capacity,Replace sections of existing 33kV overhead line between Southcote Primary and Theale Primary with underground cable,Mar-29,,
E - FLEE - 57,E - FLEE - 57,England / SEPD,Camberley Primary,Fleet-Bramley GSP,Camberley (Main) BSP,Primary,33 / 11,51.327586,-0.7587053,SU 86584 59452,,"87315, 87323",3 x 20 / 40MVA,No,20.48,8.93,11.48,0.00,31.73,Green,,5MW,0.00,0.00,Yes,0.00,25.00,14.87,Red,Upstream Thermal Capacity,,,,
E - FLEE - 58,E - FLEE - 58,England / SEPD,Crowthorne Primary,Fleet-Bramley GSP,Camberley (Main) BSP,Primary,33 / 11,51.371953,-0.78787716,SU 84470 64352,,87324,2 x 7.5 / 15MVA + 1 x 12 / 24MVA,No,20.83,3.00,2.35,0.00,6.17,Green,,5MW,0.00,0.23,Yes,0.00,25.00,13.51,Red,Upstream Thermal Capacity,,,,
E - FLEE - 59,E - FLEE - 59,England / SEPD,Kings Ride Primary,Fleet-Bramley GSP,Camberley (Main) BSP,Primary,33 / 11,51.346119,-0.74431997,SU 87551 61530,,87320,2 x 15 / 24.5MVA,No,11.87,2.88,1.73,0.00,10.28,Green,,5MW,0.00,0.00,Yes,0.00,13.10,9.72,Red,Upstream Thermal Capacity,,,,
E - FLEE - 60,E - FLEE - 60,England / SEPD,Sandhurst Primary,Fleet-Bramley GSP,Camberley (Main) BSP,Primary,33 / 11,51.34132,-0.80121898,SU 83597 60930,,87322,2 x 15 / 30MVA,No,20.01,3.99,2.63,0.00,6.46,Green,,5MW,0.53,0.00,Yes,0.00,13.10,9.25,Red,Upstream Thermal Capacity,,,,
E - FLEE - 61,E - FLEE - 61,England / SEPD,Cove Primary,Fleet-Bramley GSP,Camberley (Reserve) BSP,Primary,33 / 11,51.296164,-0.77631976,SU 85415 55937,,87316,2 x 12 / 24MVA,No,9.67,2.21,3.03,0.00,10.75,Green,,5MW,0.00,0.00,Yes,0.00,13.10,8.28,Red,Upstream Thermal Capacity,,,,
E - FLEE - 62,E - FLEE - 62,England / SEPD,Farnborough Primary,Fleet-Bramley GSP,Camberley (Reserve) BSP,Primary,33 / 11,51.277666,-0.73395721,SU 88404 53930,,87318,2 x 15 / 30MVA,No,14.06,2.87,7.56,0.00,9.54,Green,,5MW,0.00,0.25,Yes,0.00,13.10,8.23,Red,Upstream Thermal Capacity,Reinforce the 33kV circuits between Aldershot BSP and Tongham Primary and remove Farnborough from the Aldershot - Tongham 33kV circuit ,Mar-28,,
E - FLEE - 63,E - FLEE - 63,England / SEPD,Frimley Primary,Fleet-Bramley GSP,Camberley (Reserve) BSP,Primary,33 / 11,51.313835,-0.74241777,SU 87745 57942,,87319,2 x 15 / 30MVA,No,19.30,4.38,16.28,0.00,0.00,Red,Substation Thermal Capacity,5MW,0.41,0.00,Yes,0.00,12.50,9.07,Red,Upstream Thermal Capacity,,,,
E - FLEE - 64,E - FLEE - 64,England / SEPD,Hawley Primary,Fleet-Bramley GSP,Camberley (Reserve) BSP,Primary,33 / 11,51.311848,-0.76789653,SU 85973 57691,,87408,2 x 15 / 30MVA,No,10.11,1.74,1.27,0.00,17.31,Green,,5MW,0.00,0.00,Yes,0.00,13.10,4.35,Red,Upstream Thermal Capacity,,,,
E - FLEE - 65,E - FLEE - 65,England / SEPD,Queensmead Primary,Fleet-Bramley GSP,Camberley (Reserve) BSP,Primary,33 / 11,51.293632,-0.75276547,SU 87062 55683,,87321,2 x 10MVA,No,6.16,1.60,4.56,0.00,3.55,Green,,5MW,0.00,0.00,Yes,0.00,13.10,8.42,Red,Upstream Thermal Capacity,,,,
E - FLEE - 66,E - FLEE - 66,England / SEPD,Coxmoor Wood Primary,Fleet-Bramley GSP,Coxmoor Wood BSP,Primary,33 / 11,51.250818,-0.87983124,SU 78275 50779,,87409,1 x 10 / 14MVA,Yes,9.95,1.50,1.11,0.00,7.72,Green,,5MW,0.06,0.00,Yes,0.00,16.00,6.91,Red,Upstream Thermal Capacity,,,,
E - FLEE - 67,E - FLEE - 67,England / SEPD,Crookham Primary,Fleet-Bramley GSP,Coxmoor Wood BSP,Primary,33 / 11,51.273928,-0.83014011,SU 81702 53403,,87410,2 x 15 / 30MVA,No,8.74,1.46,0.76,0.00,19.19,Green,,5MW,0.00,0.00,Yes,0.00,25.00,10.64,Red,Upstream Thermal Capacity,,,,
E - FLEE - 68,E - FLEE - 68,England / SEPD,Hitches Lane Primary,Fleet-Bramley GSP,Coxmoor Wood BSP,Primary,33 / 11,51.286525,-0.86195584,SU 79461 54769,,87411,2 x 20 / 40MVA,No,21.85,5.60,9.47,0.00,0.00,Red,Substation Thermal Capacity,5MW,4.05,0.00,Yes,0.00,25.00,9.50,Red,Upstream Thermal Capacity,,,,
E - FLEE - 69,E - FLEE - 69,England / SEPD,Hook Primary,Fleet-Bramley GSP,Coxmoor Wood BSP,Primary,33 / 11,51.278548,-0.96049275,SU 72602 53780,,87124,2 x 15 / 30MVA,No,13.44,2.67,6.30,0.00,11.03,Green,,5MW,0.00,0.00,Yes,0.00,25.00,8.33,Red,Upstream Thermal Capacity,,,,
E - FLEE - 70,E - FLEE - 70,England / SEPD,Wrecclesham Primary,Fleet-Bramley GSP,Coxmoor Wood BSP,Primary,33 / 11,51.192144,-0.8266165,SU 82093 44312,,87412,2 x 15 / 30MVA,No,12.12,2.45,2.80,0.00,18.06,Green,,5MW,0.00,0.00,Yes,0.00,25.00,8.08,Red,Upstream Thermal Capacity,Replace existing rutter pole 33kV overhead line sections between Coxmor Wood BSP and Wrecclesham Primary with 33kV cable,Oct-26,,
E - FLEE - 71,E - FLEE - 71,England / SEPD,Braywick Road Primary,Fleet-Bramley GSP,Maidenhead BSP,Primary,33 / 11,51.518471,-0.72033112,SU 88887 80726,,86322,2 x 15 / 30MVA,No,16.62,4.16,6.34,0.00,7.51,Green,,5MW,0.00,0.00,Yes,0.00,13.10,8.62,Red,Upstream Thermal Capacity,,,,
E - FLEE - 72,E - FLEE - 72,England / SEPD,Cordwallis Primary,Fleet-Bramley GSP,Maidenhead BSP,Primary,33 / 11,51.528732,-0.72872194,SU 88285 81857,,87505,2 x 15 / 30MVA,No,16.64,6.00,7.89,0.00,6.48,Green,,5MW,0.00,0.00,Yes,0.00,25.00,9.66,Red,Upstream Thermal Capacity,,,,
E - FLEE - 73,E - FLEE - 73,England / SEPD,Knowl Hill Primary,Fleet-Bramley GSP,Maidenhead BSP,Primary,33 / 11,51.504816,-0.80771168,SU 82849 79105,,87506,2 x 6.3MVA,No,3.37,0.72,0.31,0.00,4.63,Green,,5MW,0.00,0.65,Yes,0.00,25.00,5.49,Red,Upstream Thermal Capacity,,,,
E - FLEE - 74,E - FLEE - 74,England / SEPD,Maidenhead Primary,Fleet-Bramley GSP,Maidenhead BSP,Primary,33 / 11,51.510519,-0.75516733,SU 86485 79800,,87504,3 x 15 / 18.7MVA,No,21.20,6.41,12.21,0.00,18.38,Green,,5MW,0.00,0.00,Yes,0.00,13.10,13.78,Red,Upstream Thermal Capacity & Substation Fault Level,,,,
E - FLEE - 75,E - FLEE - 75,England / SEPD,Temple Farm Primary,Fleet-Bramley GSP,Maidenhead BSP,Primary,33 / 11,51.547472,-0.78743054,SU 84178 83872,,87507,1 x 4MVA,Yes,2.88,0.72,0.73,0.00,1.89,Green,,5MW,0.00,0.00,Yes,0.00,25.00,2.83,Red,Upstream Thermal Capacity,,,,
E - FLEE - 76,E - FLEE - 76,England / SEPD,Farnboro Airfield Primary,Fleet-Bramley GSP,Pyestock BSP,Primary,33 / 11,51.28274,-0.77060066,SU 85839 54451,,87417,2 x 20 / 40MVA,No,9.65,2.78,2.82,0.00,7.56,Green,,5MW,0.00,0.00,Yes,0.00,25.00,8.84,Red,Upstream Thermal Capacity,,,,
E - FLEE - 77,E - FLEE - 77,England / SEPD,Pyestock Primary,Fleet-Bramley GSP,Pyestock BSP,Primary,33 / 11,51.284088,-0.81213017,SU 82940 54553,,21651,2 x 12 / 24MVA,No,2.70,1.29,11.45,0.00,10.32,Green,,5MW,0.00,0.00,Yes,0.00,20.00,9.64,Red,Upstream Thermal Capacity,,,,
E - FLEE - 78,E - FLEE - 78,England / SEPD,Henley Primary,Fleet-Bramley GSP,Reading BSP,Primary,33 / 11,51.535587,-0.90464784,SU 76070 82422,,86920,2 x 15 / 30MVA,No,16.84,3.71,4.53,0.00,0.00,Red,Upstream Thermal Capacity,5MW,0.00,0.00,Yes,0.00,25.00,9.30,Red,Upstream Thermal Capacity & Upstream Fault Level Constraint,,,,
E - FLEE - 79,E - FLEE - 79,England / SEPD,Kidmore End Primary,Fleet-Bramley GSP,Reading BSP,Primary,33 / 11,51.498466,-0.99366056,SU 69953 78205,,86912,2 x 12 / 24MVA,No,7.53,1.82,0.62,0.00,0.00,Red,Upstream Thermal Capacity,5MW,0.00,0.00,Yes,0.00,25.00,4.28,Red,Upstream Thermal Capacity & Upstream Fault Level Constraint,,,,
E - FLEE - 80,E - FLEE - 80,England / SEPD,Little Hungerford Primary,Fleet-Bramley GSP,Reading BSP,Primary,33 / 11,51.442159,-0.91692717,SU 75372 72019,,86813,3 x 15 / 21MVA,No,23.58,6.94,10.53,0.00,0.00,Red,Upstream Thermal Capacity,5MW,0.00,0.00,Yes,0.00,25.00,17.09,Red,Upstream Thermal Capacity & Upstream Fault Level Constraint,,,,
E - FLEE - 81,E - FLEE - 81,England / SEPD,Northumberland Avenue Primary,Fleet-Bramley GSP,Reading BSP,Primary,33 / 11,51.434236,-0.96264619,SU 72207 71092,,86913,2 x 15 / 21MVA,No,12.84,4.15,4.45,0.00,0.00,Red,Upstream Thermal Capacity,5MW,0.00,0.30,Yes,0.00,25.00,17.05,Red,Upstream Thermal Capacity & Upstream Fault Level Constraint,,,,
E - FLEE - 82,E - FLEE - 82,England / SEPD,Reading Primary,Fleet-Bramley GSP,Reading BSP,Primary,33 / 11,51.458165,-0.92778979,SU 74591 73788,,86914,3 x 15 / 21MVA,No,23.84,7.36,18.87,0.00,0.00,Red,Substation Thermal Capacity & Upstream Thermal Capacity,5MW,0.10,0.00,Yes,0.00,20.00,17.32,Red,Upstream Thermal Capacity & Upstream Fault Level Constraint,,,,
E - FLEE - 83,E - FLEE - 83,England / SEPD,Silver Street Primary,Fleet-Bramley GSP,Reading BSP,Primary,33 / 11,51.449812,-0.96589104,SU 71957 72821,,86915,2 x 20 / 28MVA,No,16.95,3.52,3.31,0.00,0.00,Red,Upstream Thermal Capacity,5MW,1.14,0.00,Yes,0.00,13.10,14.78,Red,Upstream Thermal Capacity & Substation Fault Level & Upstream Fault Level Constraint,,,,
E - FLEE - 84,E - FLEE - 84,England / SEPD,Twyford Primary,Fleet-Bramley GSP,Reading BSP,Primary,33 / 11,51.48058,-0.87198034,SU 78430 76339,,86916,2 x 7.5 / 15MVA,No,11.74,2.91,0.91,0.00,0.00,Red,Upstream Thermal Capacity,5MW,0.13,0.00,Yes,0.00,13.10,7.72,Red,Upstream Thermal Capacity & Upstream Fault Level Constraint,,,,
E - FLEE - 85,E - FLEE - 85,England / SEPD,Caversham Primary,Fleet-Bramley GSP,Reading Town BSP,Primary,33 / 11,51.476173,-0.9717028,SU 71512 75747,,86812,2 x 15 / 30MVA,No,11.35,2.06,0.70,0.00,16.60,Green,,5MW,0.00,0.00,Yes,0.00,13.10,9.61,Red,Upstream Thermal Capacity,,,,
E - FLEE - 86,E - FLEE - 86,England / SEPD,Reading Town Primary,Fleet-Bramley GSP,Reading Town BSP,Primary,33 / 11,51.461561,-0.97162812,SU 71540 74122,,"12106, 86815",4 x 15 / 30MVA,No,27.75,7.80,14.43,0.00,52.74,Green,,5MW,0.57,0.00,Yes,0.00,13.10,9.78,Red,Upstream Thermal Capacity,,,,
E - FLEE - 87,E - FLEE - 87,England / SEPD,The Mall Primary,Fleet-Bramley GSP,Reading Town BSP,Primary,33 / 11,51.454136,-0.97497561,SU 71319 73293,,86816,2 x 20 / 40MVA,No,14.48,3.83,4.52,0.00,13.15,Green,,5MW,0.00,0.00,Yes,0.00,13.10,10.92,Red,Upstream Thermal Capacity,,,,
E - FLEE - 88,E - FLEE - 88,England / SEPD,Elms Road Primary,Fleet-Bramley GSP,Wokingham BSP,Primary,33 / 11,51.410027,-0.83594476,SU 81057 68532,,87222,2 x 15 / 24.5MVA,No,16.99,4.65,3.47,0.00,4.22,Green,,5MW,0.00,0.33,Yes,0.00,25.00,10.05,Red,Upstream Thermal Capacity,,,,
E - FLEE - 89,E - FLEE - 89,England / SEPD,Peacock Farm Primary,Fleet-Bramley GSP,Wokingham BSP,Primary,33 / 11,51.411076,-0.78252935,SU 84770 68709,,12333,2 x 7.5 / 15MVA,No,5.03,1.24,6.85,0.00,5.65,Green,,5MW,0.00,0.05,Yes,0.00,25.00,7.99,Red,Upstream Thermal Capacity,,,,
E - FLEE - 90,E - FLEE - 90,England / SEPD,Wokingham Primary,Fleet-Bramley GSP,Wokingham BSP,Primary,33 / 11,51.402441,-0.85724149,SU 79589 67665,,87228,2 x 15 / 30MVA,No,8.94,2.20,1.80,0.00,18.48,Green,,5MW,0.00,0.00,Yes,0.00,25.00,8.67,Red,Upstream Thermal Capacity,,,,
E - IVEE - 01,E - IVEE - 01,England / SEPD,Iver 66kV GSP,N/A,N/A,GSP,275 / 66,51.541765,-0.49770629,TQ 04280 83610,,"26447, 26448, 27060, 27061",2 x 120MVA + 2 x 180MVA,No,157.33,57.50,176.77,0.00,N/A,Green,,5MW,1.09,0.88,No,N/A,40.00,20.92,Green,,,,,
E - IVEE - 02,E - IVEE - 02,England / SEPD,Hillingdon Primary,Iver 66kV GSP,N/A,Primary,66 / 11,51.534129,-0.451964,TQ 07470 82827,,89845,2 x 20 / 40MVA,No,26.63,8.87,4.21,0.00,8.98,Green,,5MW,0.90,0.00,No,44.16,25.00,25.49,Red,Substation Fault Level,,,,
E - IVEE - 03,E - IVEE - 03,England / SEPD,Northolt Primary,Iver 66kV GSP,N/A,Primary,66 / 11,51.536961,-0.39303821,TQ 11550 83230,,89871,2 x 20 / 40MVA,No,27.93,6.02,14.55,0.00,0.00,Red,Substation Thermal Capacity,5MW,0.00,0.53,No,41.68,13.10,14.00,Red,Substation Fault Level,,,Replace both transformers with 80MVA units and replace the 11kV board with 25kA break / 62.5kA make switchgear,Oct-26
E - IVEE - 04,E - IVEE - 04,England / SEPD,Uxbridge Primary,Iver 66kV GSP,N/A,Primary,66 / 11,51.540502,-0.48759615,TQ 04984 83484,,"89854, 89850",3 x 20 / 28MVA,No,36.49,7.29,32.33,0.00,10.17,Green,,5MW,0.00,0.00,No,60.49,25.00,11.70,Green,,,,Replace all 3 existing transformers with 40MVA units,Jun-28
E - IVEE - 05,E - IVEE - 05,England / SEPD,Yiewsley Primary,Iver 66kV GSP,N/A,Primary,66 / 11,51.517702,-0.47885336,TQ 05643 80961,,"89881, 89876",2 x 30 / 60MVA,No,28.46,9.84,18.75,0.00,18.96,Green,,5MW,0.00,0.35,No,66.49,13.10,11.72,Green,,,,,
E - IVES - 01,E - IVES - 01,England / SEPD,Iver 132kV GSP,N/A,N/A,GSP,400 / 132,51.541765,-0.49770629,TQ 04280 83610,,"17610, 17611, 17612, 17613",4 x 240MVA,No,525.76,236.44,471.18,206.21,N/A,Red,Substation Thermal Capacity,5MW,157.02,358.96,No,N/A,20.00,20.53,Red,Substation Fault Level,"Transmission works:
Replace 3 x 240MVA transformers with 360MVA units",Sep-26,"Replace 132kV switchgear to achieve a rating of 40kA make / 100kA break (Jun-28)

Establish a new Denham B BSP including 2 x 90MVA transformers, transferring Denham Avenue Primary and Gerrards Cross Primary to the new BSP",Jun-30
E - IVES - 02,E - IVES - 02,England / SEPD,Chalvey BSP,Iver 132kV GSP,N/A,BSP,132 / 33,51.504952,-0.60858214,SU 96669 79364,,13031,2 x 45 / 90MVA,No,53.54,10.23,45.19,0.00,0.00,Red,Upstream Thermal Capacity,5MW,3.74,3.96,No,88.03,25.00,13.63,Amber,Upstream Fault Level Constraint,,,,
E - IVES - 03,E - IVES - 03,England / SEPD,Cippenham BSP,Iver 132kV GSP,N/A,BSP,132 / 33,51.507447,-0.61431313,SU 96266 79634,,23525,2 x 45 / 90MVA,No,42.90,11.12,22.27,0.00,0.00,Red,Upstream Thermal Capacity,5MW,0.95,0.00,No,95.67,31.50,12.66,Amber,Upstream Fault Level Constraint,Remove Cippenham BSP from the existing Cippenham - Slough 132kV network by installing 2 new 132kV circuits between Iver 132kV GSP and Cippenham BSP,Jun-30,,
E - IVES - 04,E - IVES - 04,England / SEPD,Denham BSP,Iver 132kV GSP,N/A,BSP,132 / 22,51.578245,-0.53251158,TQ 01785 87618,,14640,3 x 22.5 / 45MVA,No,60.13,8.66,11.49,0.00,0.00,Red,Upstream Thermal Capacity,5MW,29.69,38.04,No,26.43,25.00,17.42,Amber,Upstream Fault Level Constraint,"Reinforce section of existing 132kV network between Iver 132kV GSP and Denham BSP to match the rating of the rest of the circuit (Dec-26)

Establish a new Denham B BSP including 2 x 90MVA transformers, transferring Denham Avenue Primary and Gerrards Cross Primary to the new BSP",Jun-30,Replace 2 x 45MVA transformers with 60MVA units,Mar-29
E - IVES - 05,E - IVES - 05,England / SEPD,Longford BSP,Iver 132kV GSP,N/A,BSP,132 / 33,51.480182,-0.50505887,TQ 03910 76751,,"18429, 18431",2 x 45 / 90MVA,No,59.08,8.51,19.07,3.79,0.00,Red,Upstream Thermal Capacity,5MW,43.73,1.90,No,48.38,25.00,15.68,Amber,Upstream Fault Level Constraint,,,,
E - IVES - 06,E - IVES - 06,England / SEPD,Slough BSP,Iver 132kV GSP,N/A,BSP,132 / 33,51.526603,-0.62370728,SU 95574 81752,,"23497, 23498, 23562",2 x 45 / 90MVA,No,108.34,45.04,94.82,0.00,0.00,Red,Substation Thermal Capacity & Upstream Thermal Capacity,5MW,4.75,0.00,No,125.79,25.00,12.16,Amber,Upstream Fault Level Constraint,"Install a 3rd 132kV circuit between Iver 132kV GSP and Slough BSP (Jun-28)

Remove Cippenham BSP from the existing Cippenham - Slough 132kV network by installing 2 new 132kV circuits between Iver 132kV GSP and Cippenham BSP",Jun-30,Install a 3rd 90MVA transfrormer,Jun-28
E - IVES - 07,E - IVES - 07,England / SEPD,Upton BSP,Iver 132kV GSP,N/A,BSP,132 / 22,51.504952,-0.54851222,TQ 00838 79445,,24639,2 x 40 / 60MVA,No,36.11,11.63,6.35,0.00,0.00,Red,Upstream Thermal Capacity,5MW,8.55,0.00,No,60.08,25.00,15.72,Amber,Upstream Fault Level Constraint,,,,
E - IVES - 08,E - IVES - 08,England / SEPD,Chalvey Primary,Iver 132kV GSP,Chalvey BSP,Primary,33 / 11,51.504952,-0.60858214,SU 96669 79364,,86332,3 x 20 / 40MVA,No,34.67,8.81,10.94,0.00,0.00,Red,Upstream Thermal Capacity,5MW,0.57,0.00,No,84.24,25.00,14.83,Green,,,,,
E - IVES - 09,E - IVES - 09,England / SEPD,Petersfield Avenue Primary,Iver 132kV GSP,Chalvey BSP,Primary,33 / 11,51.512992,-0.58759947,SU 98108 80286,,86339,1 x 17 / 21MVA + 2 x 15 / 30MVA,No,18.99,4.87,13.08,0.00,0.00,Red,Upstream Thermal Capacity,5MW,0.00,0.06,No,53.26,25.00,13.23,Green,,,,,
E - IVES - 10,E - IVES - 10,England / SEPD,Clarence Road Primary,Iver 132kV GSP,Cippenham BSP,Primary,33 / 11,51.480746,-0.62393586,SU 95654 76652,,86347,2 x 17 / 21.5MVA + 1 x 15 / 30MVA,No,27.36,8.52,12.27,0.00,0.00,Red,Substation Thermal Capacity & Upstream Thermal Capacity,5MW,0.95,0.00,No,43.77,25.00,14.86,Green,,,,,
E - IVES - 11,E - IVES - 11,England / SEPD,Beaconsfield (Middle Busbars) Primary,Iver 132kV GSP,Denham BSP,Primary,22 / 6.6,51.611789,-0.64847566,SU 93681 91194,,89786,2 x 10MVA,No,10.89,2.91,3.57,0.00,0.00,Red,Upstream Thermal Capacity,5MW,0.00,0.04,No,12.36,25.00,10.37,Green,,Move Beaconsfield Primary to Loudwater BSP via 2 new 33kV circuits,Mar-30,Replace all transformers in Beaconsfield Primary with 2 x 40MVA 33/11/6.6kV dual winding units and replace all switchgear,Mar-30
E - IVES - 12,E - IVES - 12,England / SEPD,Cokes Lane Primary,Iver 132kV GSP,Denham BSP,Primary,22 / 6.6,51.66737,-0.56643504,SU 99240 97483,,89753,2 x 10 / 12.5MVA,No,5.65,1.35,0.65,0.00,0.00,Red,Upstream Thermal Capacity,5MW,0.00,0.00,No,13.22,13.10,12.06,Amber,Substation Fault Level,,,,
E - IVES - 13,E - IVES - 13,England / SEPD,Denham Avenue Primary,Iver 132kV GSP,Denham BSP,Primary,22 / 6.6,51.568618,-0.50430999,TQ 03761 86587,,89841,2 x 10MVA,No,8.91,2.87,3.06,0.00,0.00,Red,Upstream Thermal Capacity,5MW,0.00,0.00,No,12.37,13.10,13.82,Red,Substation Fault Level,"Establish a new Denham B BSP including 2 x 90MVA transformers, transferring Denham Avenue Primary and Gerrards Cross Primary to the new BSP",Jun-30,,
E - IVES - 14,E - IVES - 14,England / SEPD,Gerrards Cross Primary,Iver 132kV GSP,Denham BSP,Primary,22 / 6.6,51.581679,-0.5585536,SU 99973 87964,,89730,2 x 10 / 12.5MVA,No,12.77,3.55,1.76,0.00,0.00,Red,Substation Thermal Capacity & Upstream Thermal Capacity,5MW,0.00,0.00,No,15.42,25.00,14.81,Green,,"Establish a new Denham B BSP including 2 x 90MVA transformers, transferring Denham Avenue Primary and Gerrards Cross Primary to the new BSP",Jun-30,,
E - IVES - 15,E - IVES - 15,England / SEPD,Grassingham Road Primary,Iver 132kV GSP,Denham BSP,Primary,22 / 6.6,51.608826,-0.55492123,TQ 00165 90988,,"89772, 89763",3 x 7.5 / 15MVA,No,12.49,3.04,1.13,0.00,0.00,Red,Substation Thermal Capacity & Upstream Thermal Capacity,5MW,0.05,0.00,No,16.66,13.10,10.32,Green,,,,,
E - IVES - 16,E - IVES - 16,England / SEPD,Harefield Primary,Iver 132kV GSP,Denham BSP,Primary,22 / 6.6,51.61028,-0.49947511,TQ 04001 91227,,89714,2 x 10 / 12.5MVA,No,5.31,1.34,0.65,0.00,0.00,Red,Upstream Thermal Capacity,5MW,0.00,0.00,No,14.91,25.00,9.47,Green,,,,,
E - IVES - 17,E - IVES - 17,England / SEPD,Bath Road West Primary,Iver 132kV GSP,Longford BSP,Primary,33 / 11,51.480449,-0.47763041,TQ 05814 76820,,86421,2 x 15 / 30MVA,No,13.00,5.50,8.14,3.79,0.00,Red,Substation Thermal Capacity & Upstream Thermal Capacity,5MW,0.31,1.90,No,21.52,13.10,9.52,Green,,,,,
E - IVES - 18,E - IVES - 18,England / SEPD,Poyle Primary,Iver 132kV GSP,Longford BSP,Primary,33 / 11,51.46952,-0.51239019,TQ 03425 75555,,86418,2 x 15 / 30MVA,No,16.72,5.00,7.93,0.00,0.00,Red,Upstream Thermal Capacity,5MW,0.00,0.00,No,33.50,25.00,11.94,Green,,,,,
E - IVES - 19,E - IVES - 19,England / SEPD,Farnham Royal Primary,Iver 132kV GSP,Slough BSP,Primary,33 / 11,51.536415,-0.62307975,SU 95597 82844,,86340,1 x 12 / 24MVA + 2 x 17 / 19.5MVA,No,24.24,3.49,8.94,0.00,0.00,Red,Upstream Thermal Capacity,5MW,0.00,0.00,No,39.69,25.00,10.85,Green,,,,,
E - IVES - 20,E - IVES - 20,England / SEPD,Taplow Primary,Iver 132kV GSP,Slough BSP,Primary,33 / 11,51.522585,-0.67936622,SU 91721 81234,,86334,2 x 15 / 30MVA,No,13.16,3.76,0.88,0.00,0.00,Red,Upstream Thermal Capacity,5MW,0.00,0.00,No,32.26,25.00,5.71,Green,,,,,
E - IVES - 21,E - IVES - 21,England / SEPD,Beaconsfield (End Busbars) Primary,Iver 132kV GSP,Upton BSP,Primary,22 / 6.6,51.611634,-0.64850651,SU 93679 91176,Headroom values for Beaconsfield account for both the Middle and End Busbar sections of the substation,"89782, 89778",2 x 5MVA,No,4.47,1.18,0.67,0.00,0.00,Red,Upstream Thermal Capacity,5MW,0.00,0.00,No,6.88,25.00,3.78,Green,,Move Beaconsfield Primary to Loudwater BSP via 2 new 33kV circuits,Mar-30,Replace all transformers in Beaconsfield Primary with 2 x 40MVA 33/11/6.6kV dual winding units and replace all switchgear,Mar-30
E - IVES - 22,E - IVES - 22,England / SEPD,Sutton Lane Primary,Iver 132kV GSP,Upton BSP,Primary,22 / 11,51.49707,-0.52935732,TQ 02185 78595,,89749,2 x 12 / 24MVA,No,8.89,3.33,1.67,0.00,0.00,Red,Upstream Thermal Capacity,5MW,3.85,0.00,No,22.11,25.00,7.93,Green,,,,,
E - IVES - 23,E - IVES - 23,England / SEPD,Upton Primary,Iver 132kV GSP,Upton BSP,Primary,22 / 11,51.50486,-0.54906267,TQ 00800 79434,,"89828, 89795",3 x 10MVA,No,19.04,4.71,4.68,0.00,0.00,Red,Upstream Thermal Capacity,5MW,0.62,0.00,No,28.32,13.10,11.67,Green,,,,,
E - LALE - 01,E - LALE - 01,England / SEPD,Laleham GSP,N/A,N/A,GSP,275 / 132,51.424589,-0.46933247,TQ 06520 70620,,"18010, 18011, 18012, 18013",4 x 240MVA (Shared with UKPN),No,273.01,109.18,141.52,463.16,N/A,Red,Substation Thermal Capacity,5MW,16.61,551.74,Yes,N/A,31.50,15.93,Red,Substation Thermal Capacity,"Transmission works:
Replace 4 x 180MVA transformers with 360MVA units",Mar-30,,
E - LALE - 02,E - LALE - 02,England / SEPD,East Bedfont BSP,Laleham GSP,N/A,BSP,132 / 22,51.453051,-0.4414092,TQ 08394 73826,,14940,2 x 30 / 60MVA,No,51.94,21.56,28.85,0.00,8.72,Green,,5MW,4.88,1.70,Yes,0.00,25.00,15.20,Red,Upstream Thermal Capacity,,,Replace both existing transformers with 90MVA units,Mar-28
E - LALE - 03,E - LALE - 03,England / SEPD,Staines BSP,Laleham GSP,N/A,BSP,132 / 33,51.453051,-0.4414092,TQ 08394 73826,,"23726, 23727, 23762, 23763",2 x 45 / 90MVA,No,114.96,35.35,35.42,52.63,37.23,Green,,5MW,11.33,100.05,Yes,0.00,31.50,15.58,Red,Upstream Thermal Capacity,Establish a new 132kV double busbar switchboard at Staines BSP,Mar-32,Add a 3rd 90MVA transformer,Mar-32
E - LALE - 04,E - LALE - 04,England / SEPD,East Bedfont Primary,Laleham GSP,N/A,Primary,132 / 11,51.438567,-0.49670597,TQ 04585 72135,,14948,1 x 20MVA + 1 x 20 / 40MVA,No,18.03,4.92,17.26,0.00,0.00,Red,Substation Thermal Capacity,5MW,0.40,0.00,Yes,0.00,25.00,12.69,Red,Upstream Thermal Capacity,,,Replace the existing 20MVA transformer with a 20 / 40MVA unit to match the other transformer,Dec-26
E - LALE - 05,E - LALE - 05,England / SEPD,Church Road Primary,Laleham GSP,East Bedfont BSP,Primary,22 / 11,51.434438,-0.46468734,TQ 06820 71722,,89685,2 x 10 / 12.5MVA,No,11.96,2.26,1.68,0.00,0.00,Red,Substation Thermal Capacity,5MW,0.13,0.00,Yes,0.00,13.10,8.14,Red,Upstream Thermal Capacity,,,,
E - LALE - 06,E - LALE - 06,England / SEPD,Feltham Primary,Laleham GSP,East Bedfont BSP,Primary,22 / 6.6,51.443496,-0.40958817,TQ 10628 72811,,"89659, 89666",3 x 10 / 12.5MVA,No,11.95,2.60,2.21,0.00,8.72,Green,,5MW,0.00,0.00,Yes,0.00,25.00,13.36,Red,Upstream Thermal Capacity,,,,
